     3.03           OBSERVATION DATA    Mixed(MIXED)        RINEX VERSION / TYPE
cnvtToRINEX 3.09.0  REGINA              14-Feb-19 08:01 UTC PGM / RUN BY / DATE
----------------------------------------------------------- COMMENT
JFNG                                                        MARKER NAME
21602M006                                                   MARKER NUMBER
GEODETIC                                                    MARKER TYPE
Automatic           CNES                                    OBSERVER / AGENCY
5038K70408          TRIMBLE NETR9       5.37                REC # / TYPE / VERS
5116354160          TRM59800.00     NONE                    ANT # / TYPE
 -2279829.2868  5004706.2954  3219776.2724                  APPROX POSITION XYZ
        0.0000        0.0000        0.0000                  ANTENNA: DELTA H/E/N
R   16 C1C C1P C2C C2P D1C D1P D2C D2P L1C L1P L2C L2P S1C  SYS / # / OBS TYPES
       S1P S2C S2P                                          SYS / # / OBS TYPES
G   16 C1C C2W C2X C5X D1C D2W D2X D5X L1C L2W L2X L5X S1C  SYS / # / OBS TYPES
       S2W S2X S5X                                          SYS / # / OBS TYPES
J   12 C1C C2X C5X D1C D2X D5X L1C L2X L5X S1C S2X S5X      SYS / # / OBS TYPES
S    8 C1C C5I D1C D5I L1C L5I S1C S5I                      SYS / # / OBS TYPES
C   12 C2I C6I C7I D2I D6I D7I L2I L6I L7I S2I S6I S7I      SYS / # / OBS TYPES
E   16 C1X C5X C7X C8X D1X D5X D7X D8X L1X L5X L7X L8X S1X  SYS / # / OBS TYPES
       S5X S7X S8X                                          SYS / # / OBS TYPES
    30.000                                                  INTERVAL
  2019     2    14     7     0    0.0000000     GPS         TIME OF FIRST OBS
  2019     2    14     7    59   30.0000000     GPS         TIME OF LAST OBS
     0                                                      RCV CLOCK OFFS APPL
  9 R03  5 R04  6 R05  1 R13 -2 R14 -7 R15  0 R17  4 R23  3 GLONASS SLOT / FRQ #
    R24  2                                                  GLONASS SLOT / FRQ #
R L1P  0.25000                                              SYS / PHASE SHIFT
R L2C -0.25000                                              SYS / PHASE SHIFT
R L2P  0.00000                                              SYS / PHASE SHIFT
G L2X -0.25000                                              SYS / PHASE SHIFT
J L2X -0.25000                                              SYS / PHASE SHIFT
    18                                                      LEAP SECONDS
    58                                                      # OF SATELLITES
   C01   120   120   120   120   119   119   120   120   120PRN / # OF OBS
   C02   120   120   120   120   119   119   120   120   120PRN / # OF OBS
   C03   120   120   120   120   119   119   120   120   120PRN / # OF OBS
   C04   120   120   120   120   119   119   120   120   120PRN / # OF OBS
   C05   107   107   107   107    14    14   102   101   101PRN / # OF OBS
   C06   120   120   120   120   119   119   120   120   120PRN / # OF OBS
   C07   120   120   120   120   119   119   120   120   120PRN / # OF OBS
   C09   120   120   120   120   119   119   120   120   120PRN / # OF OBS
   C10   120   120   120   120   119   119   120   120   120PRN / # OF OBS
   C11   120   120   120   120   119   119   120   120   120PRN / # OF OBS
   C16   120   120   120   120   119   119   120   120   120PRN / # OF OBS
   C18   120   120     0   120   119     0   120   120     0PRN / # OF OBS
   C23   120   120     0   120   119     0   120   120     0PRN / # OF OBS
   C25   120   120     0   120   119     0   120   120     0PRN / # OF OBS
   C28   120   120     0   120   119     0   118   118     0PRN / # OF OBS
   E02   120   120   120   120   120   119   119   119   120PRN / # OF OBS
   E03   120   120   120   120   120   119   119   119   120PRN / # OF OBS
   E05   120   120   120   120   120   119   119   119   120PRN / # OF OBS
   E08     1     1     1     1     1     0     0     0     1PRN / # OF OBS
   E09    56    56    56    56    56    55    55    55    55PRN / # OF OBS
   E11    82    82    82    82    82    81    81    81    82PRN / # OF OBS
   E12    78    78    78    78    78    77    77    77    78PRN / # OF OBS
   E14   120   120   120   120   120   119   119   119   120PRN / # OF OBS
   E24   120   120   120   120   120   119   119   119   120PRN / # OF OBS
   E25   120   120   120   120   120   119   119   119   120PRN / # OF OBS
   G03   120   120   120   120   120   119   119   119   119PRN / # OF OBS
   G08    75    62    68    74    75    60    67    72    68PRN / # OF OBS
   G09    65    59    65    65    65    58    63    64    63PRN / # OF OBS
   G14    99    75     0     0    99    74     0     0    92PRN / # OF OBS
   G16   120   120     0     0   120   119     0     0   120PRN / # OF OBS
   G21   118   111     0     0   118   106     0     0   111PRN / # OF OBS
   G22    75    75     0     0    75    74     0     0    74PRN / # OF OBS
   G23   120   120     0     0   120   119     0     0   120PRN / # OF OBS
   G26   120   120   120   120   120   119   119   119   120PRN / # OF OBS
   G27   120   120   120   120   120   119   119   119   120PRN / # OF OBS
   G31   120   120   120     0   120   119   119     0   120PRN / # OF OBS
   G32    30    10    21    22    30     7    18    20    25PRN / # OF OBS
   J01   100   100   100   100    97    97    83   100   100PRN / # OF OBS
   J02   120   120   120   120   119   119   120   120   120PRN / # OF OBS
   J03   120   120   120   120   119   119   120   120   120PRN / # OF OBS
   J07   120   120   120   120   119   119   120   120   120PRN / # OF OBS
   R03    83    83    83    83    83    82    82    82    83PRN / # OF OBS
   R04   120   120   120   120   120   119   119   119   120PRN / # OF OBS
   R05   120   120   120   120   120   119   119   119   120PRN / # OF OBS
   R13   120   120   120   120   120   119   119   119   120PRN / # OF OBS
   R14   120   120   120   120   120   119   119   119   120PRN / # OF OBS
   R15   120   120   120   120   120   119   119   119   120PRN / # OF OBS
   R17   117   116   113   114   117   114   110   111   117PRN / # OF OBS
   R23   120   120   111   119   120   119   109   117   120PRN / # OF OBS
   R24   120   120   120   120   120   119   119   119   120PRN / # OF OBS
   S22   120   120   120   119   120   120   120   120      PRN / # OF OBS
   S27    64    64    64    29    64     0    64    64      PRN / # OF OBS
   S28    40     0    40     0    40     0    40     0      PRN / # OF OBS
   S29   120     0   120     0   120     0   120     0      PRN / # OF OBS
   S30   120     0   120     0   120     0   120     0      PRN / # OF OBS
   S32   120     0   120     0   120     0   120     0      PRN / # OF OBS
   S37   120     0   120     0   120     0   120     0      PRN / # OF OBS
   S40   120     0   120     0   120     0   120     0      PRN / # OF OBS
DBHZ                                                        SIGNAL STRENGTH UNIT
                                                            END OF HEADER
> 2019 02 14 07 00  0.0000000  0 49
C01  37349803.602 6  37349788.938 7  37349794.781 7        37.270 6                                 194490209.372 6 158039162.623 7 150392119.345 7        40.800          42.800          44.100
C02  37829222.820 6  37829212.707 7  37829217.152 7       -18.785 6                                 196986669.572 6 160067754.595 7 152322552.496 7        37.600          42.400          43.400
C03  36799220.750 6  36799209.641 7  36799215.738 7        25.242 6                                 191623179.825 6 155709481.018 7 148175167.898 7        41.800          43.800          43.900
C04  38689797.109 6  38689785.543 6  38689791.105 6        21.426 6                                 201467956.251 6 163709116.367 6 155787727.849 6        36.500          40.700          39.400
C06  36317142.195 7  36317128.996 7  36317137.117 7      -912.703 7                                 189112883.465 7 153669651.982 7 146234048.596 7        45.000          46.800          46.000
C07  36246176.078 7  36246160.621 8  36246169.410 7      -209.063 7                                 188743369.494 7 153369392.218 8 145948324.002 7        47.800          48.200          47.500
C09  35713914.203 7  35713900.828 7  35713910.652 8      -427.570 7                                 185971713.972 7 151117200.303 7 143805109.629 8        46.800          47.600          48.400
C10  36997901.828 7  36997888.730 7  36997898.977 7       -66.445 7                                 192657813.316 7 156550233.789 7 148975238.020 7        44.500          45.200          45.800
C11  23451077.828 7  23451065.605 7  23451075.047 7      1239.242 7                                 122115952.665 7  99229182.172 7  94427806.038 7        45.800          46.600          46.400
C16  36533105.250 7  36533094.953 7  36533105.336 7     -1007.656 7                                 190237455.797 7 154583530.361 7 147103659.499 7        47.000          44.900          45.100
C18  36918519.984 7  36918511.746 7                       -40.676 7                                 192244432.885 7 156214323.098 7                        47.000          45.900
C23  22772771.648 8  22772755.664 8                       805.898 8                                 118583827.200 8  96359022.949 8                        49.200          49.600
C25  22929129.992 8  22929120.176 8                      -987.930 8                                 119398025.080 8  97020692.339 8                        48.300          48.400
C28  26287801.617 5  26287797.227 5                      3093.645 5                                 136887476.995 5 111232263.414 5                        33.000          34.000
E02  27456695.703 5  27456703.824 7  27456699.352 6  27456701.555 7      1613.750 5                                                 144285910.562 5 107746006.923 7 110556756.495 6 109151377.314 7        35.600          42.000          40.300          44.100
E03  24919429.617 7  24919435.613 8  24919432.605 8  24919433.715 8       976.574 7                                                 130952499.332 7  97789245.119 8 100340249.497 8  99064742.407 8        47.800          48.400          49.000          51.200
E05  24051953.641 8  24051960.379 8  24051956.914 8  24051958.188 8     -1706.719 8                                                 126393871.833 8  94385034.981 8  96847253.155 8  95616144.177 8        50.300          51.200          51.200          53.800
E09  25212703.844 5  25212714.816 6  25212709.504 6  25212712.246 7     -3037.688 5                                                 132493583.260 5  98940016.469 6 101521045.014 6 100230525.352 7        35.800          41.400          39.800          43.900
E14  17816155.875 8  17816170.555 8  17816166.863 8  17816168.297 8      2180.027 8                                                  93624545.143 8  69914458.569 8  71738312.827 8  70826385.308 8        48.800          50.900          50.800          53.200
E24  22808383.258 8  22808399.984 8  22808396.363 8  22808397.508 8     -1339.133 8                                                 119858898.767 8  89505032.334 8  91839945.190 8  90672489.362 8        48.000          49.600          49.500          51.800
E25  23593174.969 8  23593181.605 8  23593177.660 8  23593179.016 8       303.672 8                                                 123982990.419 8  92584705.508 8  94999959.094 8  93792331.909 8        49.300          51.400          51.100          53.800
G03  23387790.961 7  23387800.293 4  23387800.391 6  23387801.281 7     -1507.813 7                                                 122903596.345 7  95769126.173 4  95769108.190 6  91778727.284 7        44.100          28.300          41.100          45.200
G14  22092441.852 7  22092448.297 5                                     -2794.949 7                                                 116096541.695 7  90464890.224 5                                        43.400          31.200
G16  20352693.063 8  20352698.309 7                                       706.195 8                                                 106954354.476 8  83340923.992 7                                        48.900          42.100
G22  23943459.461 6  23943463.941 3                                     -1945.758 6                                                 125823662.805 6  98044471.631 3                                        40.200          22.500
G23  23216115.344 7  23216119.297 4                                      3051.273 7                                                 122001609.524 7  95066138.029 4                                        43.900          27.200
G26  20401865.016 8  20401874.090 7  20401873.387 8  20401872.801 9      -944.465 8                                                 107212620.198 8  83542299.875 7  83542257.881 8  80061330.742 9        52.100          45.500          50.400          54.700
G27  22738358.281 7  22738367.090 4  22738367.516 7  22738368.031 7      3571.371 7                                                 119491000.539 7  93109951.314 4  93109872.312 7  89230299.232 7        42.200          29.800          43.700          47.400
G31  21705298.594 8  21705304.102 6  21705304.070 7                     -1192.305 8                                                 114062156.807 8  88879649.364 6  88879616.363 7                        49.000          37.200          45.600
G32  23850722.992 4                  23850732.531 5  23850731.227 6     -3552.957 4                                                                                  97664694.90915  93595313.146 6        29.900                          32.300          36.500
J01  36990420.188 6  36990426.832 6  36990431.820 7      -484.082 6                                 194385919.211 6 151469540.694 6 145158307.226 7        38.300          38.800          43.600
J02  39540913.078 7  39540918.441 8  39540921.859 8       287.445 7                                 207788894.084 7 161913419.305 8 155167026.297 8        47.000          49.400          52.200
J03  37523947.500 7  37523953.559 8  37523957.094 8      -279.957 7                                 197189745.941 7 153654323.034 8 147252060.629 8        46.600          48.700          50.700
J07  36817628.828 6  36817634.391 8  36817638.457 8        -2.668 6                                 193477954.864 6 150762017.206 8 144480265.339 8        40.000          48.800          52.300
R03  22030466.969 6  22030466.547 6  22030472.840 6  22030473.121 6     -4127.777 6                                                 117930831.107 6 117930806.133 6  91723955.518 6  91723961.511 6        41.800          41.100          40.600          39.600
R04  20067767.469 8  20067766.785 8  20067770.855 8  20067771.395 7     -1080.316 8                                                 107462007.358 8 107462007.370 8  83581566.861 8  83581565.860 7        51.600          50.700          48.100          47.400
R05  22092803.891 7  22092803.320 7  22092807.797 7  22092808.516 7      2527.926 7                                                 118098886.222 7 118098696.228 7  91854540.349 7  91854561.354 7        45.700          43.400          43.000          42.300
R13  22445527.008 6  22445524.891 6  22445530.570 5  22445529.680 5     -2062.461 6                                                 119857927.649 6 119857911.629 6  93222827.696 5  93222833.723 5        39.900          38.100          34.900          34.100
R14  20488401.656 8  20488400.688 8  20488406.117 7  20488405.543 7      -437.430 8                                                 109214749.309 8 109214752.303 8  84944819.886 7  84944834.889 7        52.300          50.500          47.400          46.800
R15  22048330.758 7  22048329.922 7  22048334.176 7  22048335.449 7      1531.715 7                                                 117819609.780 7 117819634.785 7  91637510.303 7  91637518.300 7        46.000          44.300          42.200          42.100
R23  22087209.914 7  22087208.109 7  22087214.047 6  22087216.664 6      -238.102 7                                                 118151779.341 7 118151769.350 7  91895812.470 6  91895861.446 6        46.500          44.700          38.400          37.700
R24  21776412.180 6  21776411.797 6  21776416.355 5  21776416.293 5      2716.391 6                                                 116448392.662 6 116448402.682 6  90570888.685 5  90570923.665 5        41.600          40.100          32.000          31.900
S22  37585451.781 7  37584890.605 7        65.359 7                 197468781.159 7 147458539.841 7        42.100          43.200
S27  39746670.141 5  39746668.758 6        -1.691 5                 208870111.26515                        30.700          37.600
S29  37669080.094 6                        -7.430 6                 197952406.542 6                        38.300
S30  37500914.828 7                       -36.691 7                 197068634.744 7                        43.700
S32  37212210.500 6                        -1.008 6                 195551484.814 6                        37.500
S37  37669085.578 6                        -6.680 6                 197952335.279 6                        39.000
S40  37030662.266 7                        46.156 7                 194576978.380 7                        44.900
> 2019 02 14 07 00 30.0000000  0 52
C01  37349588.906 6  37349573.988 7  37349579.484 7        37.293 6        30.327 7        28.860 7 194489089.708 6 158038252.812 7 150391253.554 7        40.500          42.600          44.500
C02  37829331.672 6  37829321.684 7  37829326.223 7       -18.938 6       -15.371 7       -14.627 7 196987237.029 6 160068215.717 7 152322991.305 7        37.600          42.300          43.600
C03  36799075.094 6  36799064.270 7  36799070.414 7        25.117 6        20.510 7        19.517 7 191622422.603 6 155708865.728 7 148174582.383 7        41.600          44.700          44.800
C04  38689672.602 6  38689661.559 6  38689667.207 6        21.414 6        17.506 6        16.658 6 201467309.938 6 163708591.200 6 155787228.099 6        36.900          40.700          39.200
C05  39559428.430 5  39559419.145 6  39559424.977 6       -15.770 5                                 205996353.58715 167388846.25916 159289408.02216        33.700          38.400          37.500
C06  36322413.445 7  36322400.238 7  36322408.563 7      -917.395 7      -743.526 7      -707.549 7 189140333.981 7 153691957.762 7 146255275.066 7        45.300          46.400          44.900
C07  36247379.508 7  36247364.395 8  36247373.164 7      -208.898 7      -169.786 8      -161.570 7 188749637.862 7 153374485.785 8 145953171.107 7        47.900          48.000          47.400
C09  35716391.430 7  35716378.457 7  35716387.766 7      -432.520 7      -349.422 7      -332.514 7 185984614.406 7 151127682.964 7 143815085.053 7        47.200          47.400          47.600
C10  36998286.805 7  36998273.438 7  36998283.508 7       -67.137 7       -54.248 7       -51.623 7 192659816.113 7 156551861.232 7 148976786.718 7        45.700          45.400          45.400
C11  23443978.180 7  23443965.777 7  23443975.035 7      1225.211 7      1001.358 7       952.905 7 122078983.163 7  99199141.441 7  94399218.883 7        45.700          46.600          45.900
C16  36538923.625 7  36538913.574 7  36538923.711 7     -1012.355 7      -820.655 7      -780.946 7 190267753.872 7 154608150.015 7 147127087.876 7        46.400          45.700          45.000
C18  36918752.586 7  36918744.266 7                       -40.066 7       -32.788 7                 192245643.401 7 156215306.748 7                        46.500          45.400
C23  22768135.930 8  22768119.457 8                       803.449 8       653.866 8                 118559686.882 8  96339406.976 8                        49.000          49.400
C25  22934827.977 8  22934818.367 8                      -990.246 8      -803.677 8                 119427696.299 8  97044802.634 8                        48.200          49.000
C28  26269965.141 5  26269960.633 5                      3097.598 5      2515.713 5                 136794598.518 5 111156792.016 5                        32.800          33.200
E02  27447492.484 6  27447500.902 7  27447496.410 6  27447498.430 7      1610.391 6      1203.858 7      1235.262 6      1219.560 7 144237546.797 6 107709891.177 7 110519698.621 6 109114790.507 7        36.500          42.000          40.900          43.700
E03  24913890.633 7  24913896.805 8  24913893.652 8  24913894.688 8       963.766 7       724.541 8       743.443 8       733.992 8 130923391.646 7  97767508.875 8 100317946.206 8  99042722.641 8        47.900          48.500          48.300          50.900
E05  24061728.602 8  24061735.117 8  24061731.797 8  24061733.070 8     -1717.906 8     -1278.625 8     -1311.981 8     -1295.303 8 126445239.229 8  94423393.734 8  96886612.577 8  95655003.258 8        50.600          51.000          50.700          53.100
E09  25230047.445 6  25230059.105 6  25230054.500 6  25230056.480 7     -3038.637 6     -2268.678 6     -2327.863 6     -2298.270 7 132584725.520 6  99008076.822 6 101590880.896 6 100299473.462 7        36.200          41.000          39.600          43.300
E14  17803818.820 8  17803833.777 8  17803830.699 8  17803831.270 8      2142.031 8      1613.781 8      1655.879 8      1634.830 8  93559713.225 8  69866045.136 8  71688636.450 8  70777340.397 8        49.300          51.200          51.300          53.800
E24  22816028.938 8  22816045.805 8  22816042.191 8  22816043.234 8     -1339.590 8     -1000.118 8     -1026.208 8     -1013.164 8 119899077.438 8  89535035.886 8  91870731.447 8  90702884.267 8        49.700          50.000          49.500          52.700
E25  23591451.633 8  23591458.164 8  23591454.223 8  23591455.570 8       300.000 8       225.434 8       231.315 8       228.374 8 123973933.855 8  92577942.496 8  94993019.653 8  93785480.680 8        49.400          51.800          50.500          53.900
G03  23396433.000 7  23396442.195 4  23396442.980 6  23396444.426 7     -1519.824 7     -1179.574 4     -1179.573 6     -1130.426 7 122949010.011 7  95804513.390 4  95804495.394 6  91812640.050 7        43.300          27.300          41.500          46.300
G14  22108431.961 7  22108438.398 5                                     -2806.926 7     -2182.501 5                                 116180568.045 7  90530365.266 5                                        43.500          30.800
G16  20348705.234 8  20348710.328 7                                       690.707 8       544.322 7                                 106933398.043 8  83324594.323 7                                        48.300          42.100
G21  25522754.070 5                                                      1108.344 5                                                 134122990.02815                                                        32.400
G22  23954582.977 6  23954587.500 3                                     -1951.242 6     -1518.301 3                                 125882117.462 6  98090020.665 3                                        39.500          21.700
G23  23198718.391 7  23198722.254 4                                      3043.480 7      2374.567 4                                 121910188.676 7  94994901.022 4                                        43.600          28.200
G26  20407287.922 8  20407296.832 7  20407296.480 8  20407295.914 9      -955.316 8      -740.210 7      -740.210 8      -709.368 9 107241118.274 8  83564506.176 7  83564464.174 8  80082611.785 9        52.500          45.700          50.400          54.700
G27  22717987.734 7  22717996.758 5  22717997.281 7  22717997.496 7      3564.988 7      2780.426 5      2780.426 7      2664.574 7 119383954.052 7  93026538.540 5  93026459.540 7  89150362.019 7        42.500          31.000          43.700          47.600
G31  21712119.273 8  21712124.457 6  21712124.461 7                     -1197.320 8      -930.978 6      -930.979 7                 114097999.482 8  88907578.711 6  88907545.722 7                        48.900          37.800          45.600
G32  23871020.633 4                  23871029.527 5  23871030.023 6     -3558.996 4                                     -2655.191 6 125443022.62114                  97747814.05215  93674968.867 6        28.600                          30.400          36.200
J01  36993186.281 6  36993193.246 6  36993198.699 7      -485.063 6      -377.626 6      -361.891 7 194400457.861 6 151480869.471 6 145169163.968 7        38.400          39.000          43.900
J02  39539263.109 7  39539269.160 8  39539272.297 8       290.406 7       225.138 8       215.757 8 207780226.295 7 161906665.176 8 155160553.590 8        47.900          49.100          52.200
J03  37525552.047 7  37525557.809 8  37525561.129 8      -282.180 7      -218.966 8      -209.842 8 197198176.111 7 153660892.005 8 147258355.902 8        46.400          48.800          50.500
J07  36817644.203 6  36817650.066 8  36817653.750 8        -2.832 6        -2.088 8        -2.001 8 193478035.261 6 150762079.856 8 144480325.381 8        40.500          48.500          52.000
R03  22053620.992 7  22053620.242 6  22053627.035 6  22053626.324 6     -4135.004 7     -4131.419 6     -3213.322 6     -3213.322 6 118054773.701 7 118054748.713 6  91820355.165 6  91820361.162 6        42.700          41.600          39.800          39.800
R04  20073892.555 8  20073891.160 8  20073895.418 8  20073895.688 7     -1106.156 8     -1093.208 8      -850.272 8      -850.272 7 107494803.589 8 107494803.601 8  83607075.026 8  83607074.032 7        51.200          50.000          48.000          47.300
R05  22078675.461 7  22078674.637 7  22078679.457 7  22078679.234 7      2507.016 7      2517.545 7      1958.090 7      1958.090 7 118023359.860 7 118023169.877 7  91795797.655 7  91795818.652 7        46.300          45.100          42.700          42.500
R13  22457110.852 6  22457108.637 6  22457114.594 5  22457114.813 5     -2061.684 6     -2062.078 6     -1603.837 5     -1603.836 5 119919789.934 6 119919773.971 6  93270942.820 5  93270948.789 5        38.400          37.400          35.600          35.100
R14  20490873.141 8  20490872.699 8  20490877.691 7  20490876.965 7      -440.949 8      -439.187 8      -341.591 7      -341.590 7 109227924.918 8 109227927.926 8  84955067.611 7  84955082.590 7        52.300          50.800          47.600          46.800
R15  22039741.883 7  22039741.516 7  22039746.277 7  22039747.645 7      1527.727 7      1529.701 7      1189.766 7      1189.766 7 117773718.749 7 117773743.767 7  91601817.316 7  91601825.322 7        44.800          42.900          43.200          42.200
R17  23550964.539 5  23550963.367 5  23550974.633 5  23550975.270 5      3989.168 5                                                 126025945.95315 126025988.96915  98020220.13615  98020238.13315        33.900          33.400          34.100          34.000
R23  22088615.570 7  22088613.855 7  22088618.520 6  22088621.016 6      -263.266 7      -250.652 7      -194.952 6      -194.952 6 118159298.904 7 118159288.902 7  91901661.016 6  91901710.021 6        45.600          44.300          37.300          36.600
R24  21761217.109 6  21761216.508 6  21761221.793 5  21761220.934 5      2700.418 6      2708.430 6      2106.552 5      2106.553 5 116367139.781 6 116367149.785 6  90507692.112 5  90507727.072 5        41.000          39.900          31.000          31.000
S22  37585072.234 6  37584511.254 7        65.609 6        48.805 7 197466815.683 6 147457075.696 7        41.800          43.100
S27  39746679.516 5  39746674.801 6        -1.996 5                 208870167.31215                        31.500          38.100
S29  37669123.578 6                        -6.926 6                 197952607.309 6                        38.500
S30  37501126.563 7                       -36.816 7                 197069735.642 7                        44.400
S32  37212201.016 6                         -.820 6                 195551514.042 6                        37.100
S37  37669123.281 6                        -6.898 6                 197952535.051 6                        39.200
S40  37030507.219 7                        46.504 7                 194575596.548 7                        44.900
> 2019 02 14 07 01  0.0000000  0 50
C01  37349374.094 6  37349358.820 7  37349364.504 7        37.453 6        30.331 7        28.863 7 194487969.895 6 158037342.879 7 150390387.656 7        40.700          43.300          44.500
C02  37829440.773 6  37829430.246 7  37829434.766 7       -18.691 6       -15.314 7       -14.573 7 196987802.405 6 160068675.136 7 152323428.507 7        37.600          42.300          43.000
C03  36798929.930 6  36798918.695 7  36798924.715 7        25.367 6        20.514 7        19.521 7 191621665.237 6 155708250.316 7 148173996.756 7        41.600          44.200          44.700
C04  38689548.297 6  38689537.137 6  38689542.934 6        21.656 6        17.530 6        16.682 6 201466662.707 6 163708065.293 6 155786727.636 6        36.600          40.700          38.800
C06  36327711.320 7  36327698.063 7  36327706.156 7      -921.652 7      -747.213 7      -711.057 7 189167920.594 7 153714374.142 7 146276606.774 7        45.200          46.000          45.400
C07  36248582.398 7  36248567.086 7  36248575.996 7      -208.598 7      -169.647 7      -161.439 7 188755901.142 7 153379575.205 7 145958014.272 7        47.800          47.800          47.800
C09  35718897.578 7  35718884.551 7  35718893.805 7      -437.273 7      -353.459 7      -336.356 7 185997663.898 7 151138286.735 7 143825175.737 7        46.700          47.300          47.900
C10  36998674.930 7  36998661.500 7  36998671.434 7       -67.551 7       -54.733 7       -52.085 7 192661836.825 7 156553503.230 7 148978349.271 7        45.100          45.300          45.500
C11  23436959.719 7  23436947.406 7  23436956.453 7      1211.336 7       989.946 7       942.046 7 122042434.952 7  99169443.047 7  94370957.512 7        45.800          47.100          46.200
C16  36544768.117 7  36544758.625 7  36544768.738 7     -1016.762 7      -824.389 7      -784.499 7 190298189.782 7 154632881.680 7 147150622.848 7        46.700          45.100          45.200
C18  36918981.094 7  36918972.832 7                       -39.145 7       -32.227 7                 192246833.195 7 156216273.555 7                        46.800          45.900
C23  22763514.328 8  22763497.813 8                       801.070 8       651.829 8                 118535621.766 8  96319852.100 8                        49.100          49.900
C25  22940539.898 8  22940529.867 8                      -992.402 8      -805.582 8                 119457437.890 8  97068970.105 8                        48.600          48.400
C28  26252105.164 5  26252100.797 5                      3102.188 5      2519.026 5                 136701597.689 5 111081221.243 5                        33.400          35.300
E02  27438308.805 6  27438316.770 6  27438313.066 6  27438314.156 7      1606.988 6      1201.370 6      1232.712 6      1217.041 7 144189282.944 6 107673850.065 6 110482717.276 6 109078279.279 7        37.200          41.600          41.200          44.000
E03  24908424.836 7  24908430.793 8  24908427.746 8  24908428.977 8       951.145 7       714.962 8       733.613 8       724.287 8 130894668.817 7  97746060.008 8 100295937.815 8  99020994.017 8        47.300          48.800          49.000          51.200
E05  24071566.906 8  24071573.539 8  24071570.137 8  24071571.336 8     -1728.762 8     -1286.914 8     -1320.486 8     -1303.700 8 126496939.638 8  94462001.156 8  96926227.165 8  95694114.268 8        50.800          50.700          50.500          53.300
E09  25247397.563 6  25247408.480 6  25247404.301 6  25247405.980 7     -3039.285 6     -2269.363 6     -2328.566 6     -2298.964 7 132675895.296 6  99076157.697 6 101660737.879 6 100368442.390 7        36.400          41.600          40.600          43.700
E14  17791698.586 8  17791713.367 8  17791710.313 8  17791711.078 8      2104.129 8      1585.402 8      1626.760 8      1606.081 8  93496021.400 8  69818483.082 8  71639833.634 8  70729157.964 8        49.000          51.100          50.900          53.300
E24  22823676.867 8  22823693.996 8  22823690.375 8  22823691.438 8     -1339.844 8     -1000.433 8     -1026.531 8     -1013.482 8 119939268.761 8  89565048.873 8  91901527.388 8  90733288.731 8        48.500          50.100          49.000          52.200
E25  23589748.484 8  23589755.086 8  23589751.246 8  23589752.543 8       296.660 8       222.773 8       228.585 8       225.679 8 123964984.175 8  92571259.297 8  94986162.113 8  93778710.309 8        49.800          51.200          50.700          53.600
G03  23405142.680 7  23405151.961 4  23405152.141 6  23405154.246 7     -1531.453 7     -1188.810 4     -1188.810 6     -1139.276 7 122994779.260 7  95840177.699 4  95840159.698 6  91846818.327 7        42.700          27.600          41.600          46.600
G14  22124488.695 7  22124495.699 5                                     -2818.332 7     -2191.685 5                                 116264947.982 7  90596115.827 5                                        43.000          30.500
G16  20344805.602 8  20344811.086 7                                       675.516 8       532.286 7                                 106912905.014 8  83308625.740 7                                        48.700          42.200
G21  25516440.484 5                                                      1102.773 5                                                 134089818.93615                                                        31.500
G22  23965737.617 6  23965742.375 3                                     -1956.492 6     -1522.578 3                                 125940736.825 6  98135698.021 3                                        38.600          21.500
G23  23181365.438 7  23181369.656 4                                      3035.828 7      2368.532 4                                 121819000.138 7  94923845.048 4                                        43.700          28.700
G26  20412772.375 8  20412781.121 7  20412780.902 8  20412780.168 9      -965.902 8      -748.585 7      -748.585 8      -717.394 9 107269938.818 8  83586963.739 7  83586921.737 8  80104133.611 9        51.500          45.900          50.000          54.600
G27  22697654.492 7  22697663.605 5  22697663.574 7  22697663.965 7      3558.645 7      2775.385 5      2775.385 7      2659.743 7 119277101.626 7  92943277.007 5  92943198.002 7  89070569.717 7        42.300          31.500          44.000          47.600
G31  21718967.953 8  21718973.465 6  21718973.891 7                     -1202.133 8      -934.839 6      -934.839 7                 114133990.777 8  88935623.888 6  88935590.888 7                        48.600          37.500          44.900
G32  23891352.164 4                  23891359.945 5  23891362.035 5     -3563.621 4                                     -2659.288 5                                  97831061.30515  93754747.517 5        28.300                          30.500          35.700
J01  36995959.078 6  36995965.496 6  36995970.973 7      -485.906 6      -378.431 6      -362.661 7 194415027.494 6 151492222.400 6 145180043.810 7        38.400          38.200          43.600
J02  39537596.531 7  39537602.293 8  39537605.410 8       293.570 7       227.511 8       218.031 8 207771467.144 7 161899839.855 8 155154012.658 8        47.200          49.600          52.100
J03  37527168.203 7  37527173.672 8  37527177.191 8      -283.973 7      -220.621 8      -211.429 8 197206669.981 7 153667510.641 8 147264698.764 8        46.000          49.200          50.600
J07  36817658.688 6  36817664.863 8  36817668.988 8        -2.484 6        -2.081 8        -1.995 8 193478115.370 6 150762142.299 8 144480385.230 8        39.900          48.500          52.200
R03  22076814.281 7  22076813.414 6  22076820.449 6  22076819.488 6     -4141.793 7     -4138.452 6     -3218.791 6     -3218.792 6 118178927.267 7 118178902.275 6  91916918.901 6  91916924.905 6        42.600          41.300          39.800          39.400
R04  20080161.039 8  20080159.813 8  20080164.352 7  20080164.410 7     -1131.754 8     -1118.992 8      -870.326 7      -870.326 7 107528373.345 8 107528373.357 8  83633184.815 7  83633183.820 7        51.400          50.400          47.400          47.500
R05  22064665.164 7  22064664.039 7  22064667.836 7  22064668.500 6      2486.145 7      2496.550 7      1941.759 7      1941.759 6 117948463.385 7 117948273.384 7  91737544.879 7  91737565.880 6        46.700          45.100          43.200          41.900
R13  22468690.484 6  22468689.371 6  22468696.125 5  22468695.293 6     -2061.027 6     -2061.345 6     -1603.267 5     -1603.270 6 119981630.357 6 119981614.333 6  93319040.844 5  93319046.887 6        37.900          37.400          35.000          36.100
R14  20493364.602 8  20493364.027 8  20493369.375 7  20493368.797 7      -444.336 8      -442.702 8      -344.323 7      -344.324 7 109241205.990 8 109241208.992 8  84965397.310 7  84965412.305 7        51.500          50.200          47.700          46.900
R15  22031176.078 7  22031176.766 7  22031181.582 7  22031181.926 7      1523.875 7      1525.715 7      1186.665 7      1186.666 7 117727947.293 7 117727972.314 7  91566217.354 7  91566225.356 7        45.300          43.600          43.100          42.200
R17  23528592.930 5  23528590.004 5  23528603.234 5  23528603.324 5      3991.727 5      3990.444 5      3103.663 5      3103.662 5 125906232.635 5 125906275.661 5  97927110.247 5  97927128.271 5        34.600          32.700          33.500          33.800
R23  22090161.664 7  22090160.023 7  22090165.074 6  22090167.852 6      -288.137 7      -275.769 7      -214.488 6      -214.488 6 118167571.967 7 118167561.983 7  91908095.645 6  91908144.658 6        45.500          44.500          37.600          36.400
R24  21746111.953 6  21746111.391 6  21746116.996 5  21746117.379 5      2684.508 6      2692.390 6      2094.081 5      2094.080 5 116286368.041 6 116286378.074 6  90444869.688 5  90444904.682 5        40.600          39.100          32.400          32.500
S22  37584694.594 7  37584132.012 7        65.770 7        48.834 7 197464855.146 7 147455610.668 7        42.000          43.800
S29  37669163.922 6                        -6.633 6                 197952806.799 6                        38.800
S30  37501336.828 7                       -36.738 7                 197070839.740 7                        43.600
S32  37212215.969 6                         -.996 6                 195551545.041 6                        37.800
S37  37669149.734 6                        -6.316 6                 197952733.369 6                        39.400
S40  37030337.563 7                        46.082 7                 194574220.181 7                        44.900
> 2019 02 14 07 01 30.0000000  0 51
C01  37349158.719 6  37349144.016 7  37349149.895 7        37.438 6        30.309 7        28.842 7 194486850.888 6 158036433.609 7 150389522.392 7        40.700          43.000          44.700
C02  37829549.320 6  37829538.660 7  37829543.195 7       -18.590 6       -15.278 7       -14.539 7 196988366.455 6 160069133.486 7 152323864.682 7        37.500          42.600          43.300
C03  36798784.398 6  36798773.391 7  36798779.520 7        25.375 6        20.495 7        19.503 7 191620908.565 6 155707635.465 7 148173411.657 7        41.700          44.300          44.800
C04  38689423.711 6  38689412.758 6  38689418.496 6        21.711 6        17.531 6        16.683 6 201466015.435 6 163707539.348 6 155786227.153 6        36.600          41.000          38.900
C05  39559608.867 5  39559599.766 6  39559606.340 6       -15.410 5                                 205997295.38415 167389611.76816 159290137.55016        33.700          38.600          37.300
C06  36333035.047 7  36333022.113 7  36333030.152 7      -926.273 7      -750.917 7      -714.582 7 189195643.951 7 153736901.647 7 146298044.234 7        45.200          46.400          45.400
C07  36249784.070 7  36249769.051 7  36249777.738 7      -208.309 7      -169.516 7      -161.314 7 188762159.572 7 153384660.698 7 145962853.686 7        47.300          47.700          47.800
C09  35721432.422 7  35721419.430 7  35721428.902 8      -442.281 7      -357.521 7      -340.222 8 186010863.347 7 151149012.357 7 143835382.388 8        47.000          47.200          48.000
C10  36999066.227 7  36999053.117 7  36999063.051 7       -68.172 7       -55.230 7       -52.558 7 192663875.872 7 156555160.130 7 148979926.001 7        45.000          45.200          45.200
C11  23430022.352 7  23430010.340 7  23430019.262 7      1197.207 7       978.465 7       931.120 7 122006310.641 7  99140089.104 7  94343023.927 7        45.500          46.900          46.300
C16  36550639.844 7  36550630.055 7  36550640.027 7     -1021.270 7      -828.141 7      -788.070 7 190328764.211 7 154657725.910 7 147174264.933 7        46.300          44.800          45.400
C18  36919205.875 7  36919197.477 7                       -38.414 7       -31.679 7                 192248002.735 7 156217223.911 7                        46.500          45.700
C23  22758907.391 8  22758891.082 8                       798.625 8       649.775 8                 118511632.467 8  96300358.844 8                        49.100          49.500
C25  22946264.891 7  22946255.098 8                      -994.727 7      -807.515 8                 119487250.833 7  97093195.549 8                        47.600          48.900
C28  26234222.688 5  26234218.555 5                      3106.188 5      2522.265 5                 136608477.272 5 111005553.297 5                        33.300          35.000
E02  27429143.320 6  27429151.059 6  27429147.875 6  27429148.785 7      1604.184 6      1198.876 6      1230.151 6      1214.513 7 144141119.247 6 107637883.782 6 110445812.762 6 109041843.876 7        38.900          41.400          41.100          44.200
E03  24903032.430 7  24903038.676 8  24903035.398 8  24903036.816 8       938.332 7       705.341 8       723.741 8       714.541 8 130866332.521 7  97724899.782 8 100274225.592 8  98999557.794 8        47.100          48.900          48.500          51.100
E05  24081468.484 8  24081474.902 8  24081471.512 8  24081472.934 8     -1739.828 8     -1295.193 8     -1328.980 8     -1312.086 8 126548972.597 8  94500856.935 8  96966096.570 8  95733476.857 8        50.700          51.000          51.500          53.600
E09  25264751.547 6  25264763.199 6  25264759.008 6  25264760.457 7     -3040.020 6     -2270.026 6     -2329.244 6     -2299.635 7 132767091.697 6  99144258.470 6 101730615.211 6 100437431.458 7        36.500          41.100          40.200          43.600
E14  17779796.656 8  17779811.176 8  17779807.906 8  17779808.984 8      2065.816 8      1556.867 8      1597.481 8      1577.174 8  93433475.956 8  69771777.075 8  71591909.206 8  70681842.746 8        48.800          51.000          51.200          53.600
E24  22831327.398 8  22831344.352 8  22831340.938 8  22831342.066 8     -1340.152 8     -1000.753 8     -1026.860 8     -1013.806 8 119979472.939 8  89595071.457 8  91932333.177 8  90763702.920 8        48.300          49.100          49.100          52.000
E25  23588065.797 8  23588072.109 8  23588068.273 8  23588069.832 9       293.219 8       220.113 8       225.855 8       222.984 9 123956141.362 8  92564655.912 8  94979386.461 8  93772020.793 9        49.500          51.500          50.200          54.300
G03  23413919.469 7  23413929.684 4  23413929.473 6  23413930.934 7     -1543.105 7     -1197.998 4     -1197.998 6     -1148.081 7 123040902.187 7  95876117.642 4  95876099.646 6  91881260.747 7        42.100          27.500          41.400          46.400
G14  22140612.992 7  22140619.543 5                                     -2830.043 7     -2200.844 5                                 116349680.498 7  90662141.133 5                                        43.000          31.000
G16  20340994.172 8  20340999.379 6                                       660.133 8       520.242 6                                 106892875.691 8  83293018.486 6                                        48.800          41.900
G22  23976922.930 6  23976928.734 3                                     -1961.766 6     -1526.815 3                                 125999519.313 6  98181502.468 3                                        39.000          22.500
G23  23164057.977 7  23164062.316 4                                      3027.914 7      2362.415 4                                 121728047.105 7  94852972.590 4                                        43.200          29.400
G26  20418317.641 8  20418326.672 7  20418326.223 8  20418325.488 9      -976.484 8      -756.933 7      -756.934 8      -725.394 9 107299080.745 8  83609671.737 7  83609629.749 8  80125895.437 9        52.000          45.800          49.900          54.600
G27  22677358.445 7  22677368.328 5  22677368.059 7  22677368.063 7      3551.965 7      2770.241 5      2770.241 7      2654.813 7 119170447.234 7  92860169.764 5  92860090.759 7  88990925.316 7        43.100          31.500          44.300          47.500
G31  21725845.500 8  21725851.285 6  21725851.168 7                     -1207.051 8      -938.737 6      -938.737 7                 114170132.177 8  88963786.009 6  88963753.008 7                        49.100          37.800          45.300
G32  23911713.750 4                  23911722.145 5  23911723.953 5     -3569.453 4                     -2779.146 5     -2663.344 5 125656854.48614                  97914435.687 5  93834647.841 5        29.400                          31.400          35.200
J01  36998737.438 6  36998744.488 6  36998749.383 7      -487.020 6      -379.240 6      -363.439 7 194429628.356 6 151503599.614 6 145190946.977 7        37.900          39.100          43.600
J02  39535912.469 7  39535918.523 8  39535921.453 8       296.738 7       229.863 8       220.286 8 207762617.413 7 161892943.960 8 155147404.088 8        46.900          49.700          52.000
J03  37528796.641 7  37528802.527 8  37528805.688 8      -286.207 7      -222.295 8      -213.033 8 197215228.357 7 153674179.501 8 147271089.755 8        46.200          48.400          50.500
J07  36817674.578 6  36817680.242 8  36817684.281 8        -2.363 6        -2.094 8        -2.007 8 193478195.977 6 150762205.133 8 144480445.450 8        39.900          48.800          52.300
R03  22100046.742 7  22100045.355 6  22100051.992 6  22100052.000 6     -4148.625 7     -4145.353 6     -3224.160 6     -3224.160 6 118303287.883 7 118303262.873 6  92013643.699 6  92013649.692 6        42.600          41.500          40.200          40.200
R04  20086573.734 8  20086573.012 8  20086577.320 7  20086577.457 7     -1157.426 8     -1144.751 8      -890.361 7      -890.361 7 107562715.863 8 107562715.874 8  83659895.636 7  83659894.642 7        50.800          49.600          47.900          47.500
R05  22050771.914 7  22050771.469 7  22050776.391 7  22050775.984 7      2465.031 7      2475.424 7      1925.330 7      1925.330 7 117874200.652 7 117874010.655 7  91679784.972 7  91679805.983 7        46.500          45.400          42.800          42.500
R13  22480268.773 6  22480267.117 6  22480272.734 6  22480272.297 5     -2060.059 6     -2060.625 6     -1602.707 6     -1602.707 5 120043449.090 6 120043433.065 6  93367122.050 6  93367128.085 5        39.500          37.900          36.000          35.800
R14  20495875.875 8  20495875.723 8  20495880.305 8  20495880.145 7      -447.883 8      -446.219 8      -347.059 8      -347.059 7 109254592.554 8 109254595.550 8  84975809.075 8  84975824.071 7        52.200          50.200          48.100          47.500
R15  22022633.953 7  22022633.918 7  22022638.375 7  22022638.527 7      1519.891 7      1521.731 7      1183.568 7      1183.568 7 117682295.391 7 117682320.383 7  91530710.326 7  91530718.330 7        46.700          45.100          43.000          42.400
R17  23506208.359 5  23506206.336 5  23506217.711 5  23506218.328 5      3993.973 5      3992.798 5      3105.494 5      3105.494 5 125786448.755 5 125786491.717 5  97833945.440 5  97833963.451 5        35.200          34.100          34.600          33.600
R23  22091849.328 7  22091848.117 7  22091853.602 6  22091855.465 5      -313.375 7      -300.908 7      -234.041 6      -234.040 5 118176599.221 7 118176589.235 7  91915116.862 6  91915165.857 5        46.000          44.500          37.200          35.800
R24  21731099.266 7  21731098.418 6  21731102.266 5  21731102.684 5      2668.176 7      2676.178 6      2081.469 5      2081.469 5 116206082.732 7 116206092.744 6  90382425.611 5  90382460.610 5        42.200          40.300          31.600          30.500
S22  37584313.594 6  37583753.273 7        65.441 6        48.793 7 197462897.953 6 147454146.886 7        41.800          43.800
S27  39746701.016 5  39746697.539 6        -1.723 5                 208870276.59115                        30.800          38.100
S29  37669207.406 6                        -6.668 6                 197953007.644 6                        38.200
S30  37501544.859 7                       -36.773 7                 197071947.857 7                        43.700
S32  37212227.266 6                         -.879 6                 195551573.513 6                        37.200
S37  37669200.313 6                        -6.582 6                 197952934.452 6                        39.500
S40  37030181.547 7                        46.246 7                 194572835.409 7                        45.000
> 2019 02 14 07 02  0.0000000  0 52
C01  37348944.117 6  37348929.219 7  37348934.625 7        37.465 6        30.302 7        28.836 7 194485732.144 6 158035524.555 7 150388657.318 7        40.600          43.200          44.500
C02  37829656.969 6  37829646.410 7  37829651.168 7       -18.594 6       -15.234 7       -14.497 7 196988928.878 6 160069590.509 7 152324299.594 7        37.400          42.200          42.500
C03  36798639.086 6  36798628.066 7  36798634.523 7        25.305 6        20.487 7        19.495 7 191620152.201 6 155707020.865 7 148172826.802 7        41.800          44.400          44.100
C04  38689299.500 6  38689288.438 6  38689293.863 6        21.789 6        17.546 6        16.697 6 201465367.648 6 163707012.979 6 155785726.247 6        36.400          40.800          38.800
C05  39559698.117 5  39559689.512 6  39559695.469 6       -15.527 5                                 205997761.80315 167389991.59116 159290497.99916        34.000          37.900          37.100
C06  36338385.156 7  36338372.277 7  36338380.164 7      -930.840 7      -754.610 7      -718.097 7 189223503.663 7 153759539.944 7 146319587.132 7        45.300          46.000          45.700
C07  36250985.055 7  36250969.863 7  36250978.590 7      -208.242 7      -169.373 7      -161.177 7 188768412.714 7 153389741.890 7 145967689.003 7        47.700          47.800          47.600
C09  35723995.773 7  35723982.977 7  35723992.676 7      -447.402 7      -361.579 7      -344.083 7 186024212.590 7 151159859.716 7 143845704.866 7        46.400          47.000          47.600
C10  36999461.406 7  36999448.148 7  36999458.164 7       -68.758 7       -55.703 7       -53.008 7 192665932.402 7 156556831.229 7 148981516.243 7        44.500          45.200          45.000
C11  23423165.930 7  23423154.922 7  23423163.348 7      1182.969 7       966.952 7       920.163 7 121970611.389 7  99111080.558 7  94315419.027 7        44.700          47.000          46.200
C16  36556538.313 7  36556527.809 7  36556537.871 7     -1025.957 7      -831.879 7      -791.627 7 190359476.645 7 154682682.275 7 147198013.736 7        46.700          45.000          45.200
C18  36919426.125 7  36919417.867 7                       -37.770 7       -31.111 7                 192249151.320 7 156218157.233 7                        45.600          45.800
C23  22754315.195 8  22754298.703 8                       795.945 8       647.734 8                 118487718.517 8  96280926.811 8                        49.300          48.800
C25  22952003.492 7  22951993.996 8                      -997.285 7      -809.443 8                 119517134.967 7  97117478.845 8                        47.800          48.600
C28  26216317.531 5  26216313.348 5                      3109.844 5      2525.460 5                 136515238.898 5 110929789.506 5                        32.800          35.900
E02  27419997.125 6  27420003.551 6  27420000.695 6  27420002.199 7      1600.480 6      1196.401 6      1227.613 6      1212.007 7 144093055.009 6 107601991.753 6 110408984.364 6 109005483.675 7        39.100          40.400          40.000          42.800
E03  24897713.859 7  24897720.656 8  24897717.020 8  24897718.281 8       925.313 7       695.708 8       713.857 8       704.782 8 130838383.235 7  97704028.554 8 100252809.898 8  98978414.323 8        47.300          48.500          48.900          51.200
E05  24091432.953 8  24091439.383 8  24091436.074 8  24091437.438 8     -1750.906 8     -1303.430 8     -1337.432 8     -1320.431 8 126601336.475 8  94539959.828 8  97006219.536 8  95773089.785 8        50.200          50.900          50.700          52.900
E09  25282110.898 6  25282122.441 6  25282118.918 6  25282119.629 7     -3040.938 6     -2270.637 6     -2329.874 6     -2300.255 7 132858312.740 6  99212377.590 6 101800511.419 6 100506439.108 7        36.400          41.500          40.800          43.700
E14  17768113.453 8  17768128.684 8  17768124.328 8  17768126.113 8      2027.262 8      1528.206 8      1568.073 8      1548.139 8  93372081.899 8  69725930.892 8  71544867.030 8  70635398.568 8        48.600          50.800          50.300          53.000
E24  22838980.195 8  22838997.383 8  22838993.793 8  22838994.973 8     -1340.660 8     -1001.049 8     -1027.163 8     -1014.106 8 120019688.995 8  89625102.924 8  91963148.067 8  90794126.102 8        48.500          49.700          48.900          52.100
E25  23586403.203 8  23586409.445 8  23586405.949 8  23586407.285 8       289.523 8       217.482 8       223.155 8       220.318 8 123947404.261 8  92558131.452 8  94972691.806 8  93765411.239 8        49.800          51.000          50.900          53.100
G03  23422763.523 6  23422772.805 4  23422772.676 6  23422773.773 7     -1554.930 6     -1207.109 4     -1207.109 6     -1156.812 7 123087375.928 6  95912330.907 4  95912312.917 6  91915965.119 7        41.700          27.200          41.300          45.800
G14  22156803.641 7  22156810.074 4                                     -2841.879 7     -2209.952 4                                 116434763.698 7  90728439.684 4                                        43.000          29.600
G16  20337270.859 8  20337275.648 6                                       644.629 8       508.229 6                                 106873308.858 8  83277771.625 6                                        49.200          41.800
G21  25503910.367 4                                                      1091.773 4                                                 134023983.13614                                                        29.100
G22  23988140.547 6  23988145.469 3                                     -1967.359 6     -1530.971 3                                 126058461.836 6  98227431.604 3                                        37.900          22.300
G23  23146795.320 7  23146799.516 4                                      3019.879 7      2356.237 4                                 121637331.925 7  94782285.475 4                                        43.500          29.100
G26  20423924.227 8  20423932.391 7  20423932.414 8  20423931.875 9      -987.293 8      -765.227 7      -765.226 8      -733.342 9 107328541.977 8  83632628.542 7  83632586.540 8  80147895.707 9        52.600          45.300          50.000          54.700
G27  22657101.156 7  22657110.328 5  22657109.910 7  22657111.043 7      3545.109 7      2765.024 5      2765.024 7      2649.815 7 119063993.672 7  92777219.032 5  92777140.037 7  88911430.876 7        42.500          31.300          44.100          47.900
G31  21732751.414 8  21732757.359 6  21732757.250 7                     -1212.195 8      -942.639 6      -942.639 7                 114206423.796 8  88992065.180 6  88992032.174 7                        48.700          37.300          45.400
G32  23932105.008 5                  23932113.250 5  23932116.012 5     -3574.664 5                     -2783.312 5     -2667.341 5 125764012.39115                  97997935.033 5  93914668.080 5        31.200                          30.900          34.600
J01  37001522.281 6  37001529.191 6  37001533.820 7      -488.199 6      -380.036 6      -364.201 7 194444259.846 6 151515000.691 6 145201873.004 7        37.000          38.600          44.100
J02  39534211.172 7  39534216.809 8  39534220.008 8       299.684 7       232.222 8       222.546 8 207753676.840 7 161885977.285 8 155140727.694 8        47.100          49.600          51.900
J03  37530438.016 7  37530443.258 8  37530446.570 8      -288.414 7      -223.961 8      -214.629 8 197223850.811 7 153680898.327 8 147277528.618 8        46.400          49.100          50.800
J07  36817690.156 6  36817695.547 8  36817699.625 8        -2.566 6        -2.097 8        -2.010 8 193478276.703 6 150762268.053 8 144480505.741 8        40.200          48.800          52.200
R03  22123315.938 7  22123315.461 6  22123321.695 6  22123321.953 6     -4155.414 7     -4152.105 6     -3229.410 6     -3229.410 6 118427851.017 7 118427826.030 6  92110525.992 6  92110531.998 6        43.700          41.800          40.200          39.400
R04  20093131.156 8  20093129.711 8  20093134.223 7  20093134.227 7     -1183.113 8     -1170.409 8      -910.317 7      -910.317 7 107597828.119 8 107597828.131 8  83687205.158 7  83687204.163 7        50.600          49.600          47.200          46.800
R05  22036998.977 7  22036998.441 7  22037002.996 7  22037002.719 7      2443.645 7      2454.208 7      1908.827 7      1908.827 7 117800574.435 7 117800384.432 7  91622520.175 7  91622541.168 7        47.200          46.100          42.900          42.800
R13  22491841.406 6  22491839.543 6  22491844.887 5  22491844.516 5     -2059.465 6     -2059.905 6     -1602.148 5     -1602.147 5 120105246.211 6 120105230.222 6  93415186.487 5  93415192.503 5        39.400          38.200          35.400          35.100
R14  20498407.109 8  20498406.313 8  20498410.824 8  20498411.000 7      -451.355 8      -449.698 8      -349.765 8      -349.764 7 109268083.483 8 109268086.477 8  84986302.018 8  84986317.005 7        51.900          50.000          48.400          47.700
R15  22014112.109 7  22014112.730 7  22014116.402 7  22014117.754 7      1515.973 7      1517.794 7      1180.505 7      1180.506 7 117636761.559 7 117636786.565 7  91495295.168 7  91495303.145 7        46.200          44.500          43.000          43.100
R17  23483811.094 6  23483809.563 5  23483820.664 5  23483820.848 5      3996.297 6      3995.034 5      3107.233 5      3107.233 5 125666597.694 6 125666640.710 5  97740728.457 5  97740746.450 5        36.000          34.900          34.600          34.000
R23  22093677.438 7  22093676.277 7  22093683.254 6  22093683.680 6      -338.625 7      -326.055 7      -253.599 6      -253.599 6 118186380.883 7 118186370.892 7  91922724.828 6  91922773.815 6        45.500          44.700          36.900          36.500
R24  21716176.695 7  21716177.230 6  21716180.898 5  21716180.898 5      2651.637 7      2659.824 6      2068.750 5      2068.750 5 116126287.982 7 116126298.009 6  90320363.126 5  90320398.111 5        43.300          41.700          32.600          31.700
S22  37583935.391 7  37583374.789 7        65.090 7        48.620 7 197460938.868 7 147452688.295 7        42.000          43.600
S27  39746715.719 5  39746708.953 6        -1.832 5                 208870391.79115                        31.300          38.100
S29  37669240.078 6                        -6.441 6                 197953206.838 6                        38.700
S30  37501758.469 7                       -37.035 7                 197073059.675 7                        43.500
S32  37212224.156 6                        -1.070 6                 195551604.930 6                        37.200
S37  37669231.078 6                        -6.297 6                 197953133.446 6                        38.600
S40  37030019.016 7                        46.098 7                 194571463.858 7                        45.000
> 2019 02 14 07 02 30.0000000  0 51
C01  37348729.258 6  37348714.309 7  37348720.012 7        37.504 6        30.314 7        28.847 7 194484612.946 6 158034615.122 7 150387791.900 7        40.700          42.800          44.300
C02  37829764.547 6  37829754.012 7  37829758.988 7       -18.480 6       -15.161 7       -14.427 7 196989488.567 6 160070045.325 7 152324732.393 7        37.500          42.600          43.000
C03  36798493.836 6  36798482.664 7  36798489.020 7        25.363 6        20.503 7        19.511 7 191619395.251 6 155706405.775 7 148172241.487 7        41.800          45.000          44.900
C04  38689174.766 6  38689163.676 6  38689169.145 6        21.785 6        17.582 6        16.731 6 201464718.501 6 163706485.515 6 155785224.316 6        36.900          40.500          39.100
C05  39559787.648 5  39559778.641 6  39559784.828 6       -15.227 5                                 205998217.15415 167390367.93716 159290857.08716        34.200          38.300          37.700
C06  36343761.547 7  36343748.500 7  36343756.438 7      -935.301 7      -758.272 7      -721.581 7 189251498.575 7 153782288.107 7 146341234.577 7        45.400          46.700          46.000
C07  36252184.555 7  36252169.422 8  36252177.992 7      -207.984 7      -169.191 8      -161.004 7 188774659.119 7 153394817.610 8 145972519.128 7        47.200          48.200          47.400
C09  35726587.820 7  35726575.082 7  35726584.777 8      -452.309 7      -365.612 7      -347.921 8 186037710.739 7 151170828.068 7 143856142.494 8        46.900          47.300          48.300
C10  36999859.195 7  36999846.371 7  36999855.891 7       -69.313 7       -56.147 7       -53.430 7 192668005.286 7 156558515.627 7 148983119.135 7        45.000          45.700          44.900
C11  23416392.422 7  23416380.887 7  23416389.176 7      1168.930 7       955.418 7       909.189 7 121935337.919 7  99082418.008 7  94288143.367 7        45.000          46.900          46.600
C16  36562462.195 7  36562452.141 7  36562462.258 7     -1030.477 7      -835.587 7      -795.156 7 190390326.000 7 154707749.895 7 147221868.415 7        47.000          44.900          44.800
C18  36919642.461 7  36919634.191 7                       -36.996 7       -30.508 7                 192250277.666 7 156219072.479 7                        46.700          45.600
C23  22749737.016 8  22749720.844 8                       793.527 8       645.724 8                 118463878.823 8  96261555.098 8                        49.600          49.400
C25  22957756.172 8  22957746.656 8                      -999.516 8      -811.351 8                 119547089.530 8  97141819.378 8                        48.300          48.600
C28  26198387.531 5  26198386.102 6                      3113.820 5      2528.655 6                 136421883.64215 110853930.77716                        30.500          36.000
E02  27410868.477 6  27410876.578 6  27410873.352 6  27410874.313 7      1597.383 6      1193.964 6      1225.111 6      1209.538 7 144045088.735 6 107566172.838 6 110372231.020 6 108969197.538 7        38.100          40.100          39.800          43.200
E03  24892468.836 7  24892475.371 8  24892472.242 8  24892473.301 8       912.508 7       686.077 8       703.974 8       695.025 8 130810820.858 7  97683446.255 8 100231690.663 8  98957563.562 8        47.400          48.900          48.800          51.200
E05  24101460.047 8  24101466.965 8  24101463.512 8  24101464.508 8     -1761.750 8     -1311.610 8     -1345.826 8     -1328.718 8 126654028.989 8  94579308.117 8  97046594.307 8  95812951.320 8        50.300          51.000          51.000          53.500
E09  25299473.977 6  25299485.867 6  25299481.934 6  25299483.070 7     -3041.555 6     -2271.183 6     -2330.433 6     -2300.808 7 132949555.715 6  99280513.077 6 101870424.409 6 100575463.358 7        36.000          41.300          40.600          43.600
E14  17756650.758 8  17756665.410 8  17756661.035 8  17756663.121 8      1988.773 8      1499.436 8      1538.552 8      1518.994 8  93311843.678 8  69680947.812 8  71498710.470 8  70589828.749 8        48.600          51.100          50.100          52.500
E24  22846635.039 8  22846652.598 8  22846648.535 8  22846649.879 8     -1340.871 8     -1001.308 8     -1027.430 8     -1014.369 8 120059915.488 8  89655142.174 8  91993970.960 8  90824557.175 8        48.500          49.900          49.000          52.000
E25  23584760.219 8  23584766.773 8  23584762.883 8  23584764.438 9       286.141 8       214.895 8       220.501 8       217.698 9 123938771.092 8  92551684.597 8  94966076.781 8  93758880.289 9        50.200          51.200          50.400          54.500
G03  23431673.320 7  23431682.445 4  23431682.512 6  23431684.133 7     -1566.340 7     -1216.127 4     -1216.126 6     -1165.455 7 123134196.886 7  95948814.709 4  95948796.702 6  91950928.773 7        43.200          27.400          41.300          46.200
G14  22173060.617 7  22173066.441 4                                     -2853.348 7     -2218.977 4                                 116520194.352 7  90795008.978 4                                        42.600          29.500
G16  20333634.922 8  20333640.035 6                                       629.379 8       496.266 6                                 106854202.608 8  83262883.652 6                                        48.800          41.800
G21  25497693.523 5                                                      1086.254 5                                                                                                                        31.200
G22  23999385.375 6  23999391.012 3                                     -1972.633 6     -1535.031 3                                 126117560.603 6  98273482.537 3                                        38.100          22.800
G23  23129578.602 7  23129582.793 5                                      3011.887 7      2350.012 5                                 121546856.441 7  94711785.120 5                                        44.200          30.300
G26  20429590.328 8  20429599.258 7  20429599.105 8  20429598.504 9      -997.715 8      -773.449 7      -773.448 8      -741.221 9 107358319.750 8  83655832.005 7  83655789.996 8  80170132.352 9        52.000          45.100          50.200          54.700
G27  22636882.227 7  22636891.453 5  22636891.340 7  22636892.113 8      3538.516 7      2759.751 5      2759.751 7      2644.761 8 118957743.129 7  92694426.491 5  92694347.491 7  88832088.054 8        42.700          31.000          44.100          48.100
G31  21739686.398 8  21739691.723 6  21739691.719 7                     -1217.086 8      -946.524 6      -946.524 7                 114242864.992 8  89020460.903 6  89020427.908 7                        49.100          37.700          46.000
G32  23952523.578 4                  23952535.816 5  23952538.914 5     -3579.820 4                     -2787.399 5     -2671.255 5 125871327.552 4                  98081557.007 5  93994805.718 5        29.600                          32.200          33.400
J01  37004312.156 6  37004318.840 6  37004323.359 7      -489.094 6      -380.799 6      -364.931 7 194458920.613 6 151526424.649 6 145212820.928 7        37.100          38.900          43.800
J02  39532492.063 7  39532498.184 8  39532501.344 8       302.727 7       234.605 8       224.830 8 207744644.576 7 161878939.145 8 155133982.801 8        47.200          50.000          52.000
J03  37532090.109 7  37532095.938 8  37532099.605 8      -290.441 7      -225.598 8      -216.198 8 197232536.335 7 153687666.272 8 147284014.567 8        46.300          49.200          51.300
J07  36817705.031 6  36817711.082 8  36817714.855 8        -2.520 6        -2.076 8        -1.990 8 193478356.640 6 150762330.328 8 144480565.433 8        40.000          48.200          52.200
R03  22146622.773 7  22146622.820 7  22146627.277 6  22146628.465 6     -4161.715 7     -4158.672 7     -3234.519 6     -3234.519 6 118552611.187 7 118552586.195 7  92207561.573 6  92207567.570 6        43.600          43.100          40.400          39.400
R04  20099831.508 8  20099830.520 8  20099834.531 7  20099834.273 7     -1208.598 8     -1195.965 8      -930.195 7      -930.195 7 107633707.076 8 107633707.088 8  83715111.007 7  83715110.005 7        52.100          50.300          47.500          46.800
R05  22023344.438 7  22023344.813 7  22023348.277 7  22023349.629 7      2422.434 7      2432.922 7      1892.273 7      1892.273 7 117727586.767 7 117727396.766 7  91565751.980 7  91565772.981 7        47.900          45.600          43.800          43.400
R13  22503409.883 6  22503408.230 6  22503413.309 5  22503412.930 5     -2058.520 6     -2059.157 6     -1601.567 5     -1601.565 5 120167020.914 6 120167004.938 6  93463233.485 5  93463239.459 5        40.400          38.700          35.800          35.800
R14  20500956.617 8  20500956.121 8  20500961.816 7  20500960.902 7      -454.766 8      -453.114 8      -352.421 7      -352.422 7 109281676.910 8 109281679.897 8  84996874.655 7  84996889.664 7        51.100          50.300          47.300          47.300
R15  22005612.609 7  22005613.543 7  22005618.238 7  22005617.660 6      1512.184 7      1513.922 7      1177.494 7      1177.493 6 117591343.906 7 117591368.909 7  91459970.351 7  91459978.369 6        46.100          44.700          42.000          41.600
R17  23461401.898 6  23461400.766 5  23461409.652 5  23461412.000 5      3998.355 6      3997.168 5      3108.891 5      3108.891 5 125546682.670 6 125546725.666 5  97647461.737 5  97647479.707 5        37.200          35.700          35.900          34.600
R23  22095647.570 7  22095645.605 7  22095652.039 6  22095653.680 5      -363.598 7      -351.189 7      -273.146 6      -273.147 5 118196916.533 7 118196906.554 7  91930919.218 6  91930968.222 5        45.400          43.500          37.200          35.800
R24  21701348.609 7  21701346.875 6  21701351.363 5  21701351.207 5      2635.289 7      2643.360 6      2055.944 5      2055.944 5 116046987.199 7 116046997.218 6  90258684.803 5  90258719.799 5        42.600          41.100          32.200          31.600
S22  37583556.188 7  37582996.309 7        65.262 7        48.678 7 197458982.081 7 147451227.948 7        42.000          43.600
S29  37669284.641 6                        -6.188 6                 197953407.648 6                        38.300
S30  37501970.813 7                       -37.039 7                 197074174.197 7                        43.400
S32  37212221.375 6                         -.938 6                 195551633.638 6                        37.200
S37  37669272.859 6                        -6.359 6                 197953334.506 6                        39.100
S40  37029870.391 7                        46.113 7                 194570085.162 7                        45.000
> 2019 02 14 07 03  0.0000000  0 51
C01  37348514.391 6  37348499.430 7  37348505.250 7        37.270 6        30.298 7        28.832 7 194483494.345 6 158033706.181 7 150386926.932 7        40.800          43.000          45.000
C02  37829872.008 6  37829861.191 6  37829865.684 7       -18.504 6       -15.124 6       -14.392 7 196990046.931 6 160070499.046 6 152325164.164 7        37.600          41.400          43.200
C03  36798348.648 6  36798337.512 7  36798343.570 7        25.277 6        20.485 7        19.494 7 191618638.938 6 155705791.225 7 148171656.671 7        41.800          44.400          44.800
C04  38689050.555 6  38689038.984 6  38689044.609 6        21.660 6        17.584 6        16.733 6 201464069.290 6 163705957.997 6 155784722.321 6        36.900          40.600          39.400
C05  39559876.438 5  39559867.465 6  39559873.676 6       -15.340 5                                 205998679.66115 167390743.75916 159291214.73016        33.700          38.500          37.200
C06  36349163.961 7  36349150.844 7  36349158.852 7      -939.938 7      -761.964 7      -725.095 7 189279629.815 7 153805147.039 7 146362987.432 7        44.700          46.800          45.900
C07  36253383.156 8  36253367.723 7  36253376.477 7      -207.875 8      -169.033 7      -160.853 7 188780899.688 8 153399888.588 7 145977344.732 7        48.000          47.800          47.600
C09  35729209.203 7  35729196.156 7  35729206.105 8      -457.391 7      -369.686 7      -351.798 8 186051359.297 7 151181918.634 7 143866696.419 8        46.400          47.200          48.500
C10  37000260.570 7  37000247.805 7  37000257.387 7       -69.879 7       -56.607 7       -53.868 7 192670095.165 7 156560213.827 7 148984735.163 7        44.500          45.700          44.500
C11  23409700.430 7  23409688.859 7  23409697.660 7      1154.332 7       943.805 7       898.136 7 121900493.220 7  99054103.855 7  94261199.274 7        44.900          46.300          46.600
C16  36568413.055 7  36568403.105 7  36568413.117 7     -1035.160 7      -839.324 7      -798.712 7 190421313.314 7 154732929.627 7 147245829.768 7        47.000          45.400          44.100
C18  36919854.617 7  36919846.293 7                       -36.410 7       -29.931 7                 192251382.718 7 156219970.419 7                        46.800          46.100
C23  22745173.242 8  22745156.945 8                       790.957 8       643.680 8                 118440114.561 8  96242244.686 8                        49.800          49.300
C25  22963522.594 7  22963512.980 8                     -1002.113 7      -813.299 8                 119577115.999 7  97166218.347 8                        47.900          48.500
C28  26180436.656 4  26180435.992 6                      3117.809 4      2531.849 6                 136328414.75614 110777979.70816                        28.900          36.500
E02  27401759.875 6  27401767.793 6  27401764.512 6  27401765.375 7      1594.039 6      1191.502 6      1222.586 6      1207.044 7 143997221.334 6 107530427.765 6 110335553.453 6 108932986.206 7        38.000          41.400          40.400          43.400
E03  24887298.016 7  24887303.910 8  24887300.898 8  24887302.391 8       899.332 7       676.394 8       694.039 8       685.217 8 130783647.467 7  97663154.431 8 100210869.494 8  98937007.065 8        47.800          48.600          48.300          51.100
E05  24111549.570 8  24111556.723 8  24111552.898 8  24111554.074 8     -1772.754 8     -1319.790 8     -1354.220 8     -1337.005 8 126707050.137 8  94618901.830 8  97087220.894 8  95853061.471 8        49.500          51.100          50.500          53.100
E09  25316841.438 5  25316853.398 6  25316849.563 6  25316850.605 7     -3042.480 5     -2271.719 6     -2330.983 6     -2301.351 7 133040820.190 5  99348664.636 6 101940353.903 6 100644503.873 7        35.100          40.300          40.200          43.100
E14  17745409.156 8  17745423.188 8  17745420.402 8  17745421.316 8      1949.809 8      1470.501 8      1508.862 8      1489.682 8  93252767.861 8  69636832.767 8  71453444.601 8  70545138.289 8        49.400          50.900          51.000          53.100
E24  22854292.109 7  22854309.340 8  22854305.645 8  22854306.836 8     -1341.340 7     -1001.585 8     -1027.714 8     -1014.649 8 120100153.090 7  89685189.729 8  92024802.373 8  90854996.654 8        47.300          49.200          49.400          51.900
E25  23583137.305 8  23583143.883 8  23583139.914 8  23583141.438 8       282.598 8       212.296 8       217.835 8       215.065 8 123930242.271 8  92545315.716 8  94959541.741 8  93752428.330 8        49.500          51.000          50.500          53.300
G03  23440648.766 7  23440657.664 4  23440657.781 6  23440660.441 7     -1577.883 7     -1225.111 4     -1225.111 6     -1174.064 7 123181363.693 7  95985568.053 4  95985550.045 6  91986150.699 7        42.900          28.300          41.100          46.400
G14  22189383.680 7  22189389.777 4                                     -2865.039 7     -2227.991 4                                 116605972.056 7  90861848.715 4                                        42.800          29.200
G16  20330086.688 8  20330092.250 7                                       613.863 8       484.288 7                                 106835557.500 8  83248355.015 7                                        48.600          42.200
G21  25491508.656 4                                                      1079.984 4                                                                                                                        28.900
G22  24010660.977 6  24010667.070 3                                     -1977.406 6     -1539.047 3                                 126176814.050 6  98319653.950 3                                        37.600          22.300
G23  23112407.688 7  23112412.383 5                                      3003.695 7      2343.689 5                                 121456624.381 7  94641474.457 5                                        44.200          30.000
G26  20435316.930 8  20435325.980 7  20435325.504 8  20435325.273 9     -1008.352 8      -781.658 7      -781.658 8      -749.089 9 107388413.580 8  83679281.734 7  83679239.740 8  80192605.018 9        52.000          45.200          50.200          54.700
G27  22616702.945 7  22616712.035 5  22616712.039 7  22616712.441 7      3531.215 7      2754.362 5      2754.362 7      2639.597 7 118851700.081 7  92611795.639 5  92611716.634 7  88752900.135 7        42.800          32.000          44.500          47.800
G31  21746649.750 8  21746655.398 6  21746655.184 7                     -1222.270 8      -950.458 6      -950.458 7                 114279457.642 8  89048974.641 6  89048941.656 7                        49.100          37.500          45.400
G32  23972975.695 5  23972987.445 2  23972988.422 5  23972988.613 5     -3584.965 5                     -2791.459 5     -2675.146 5 125978798.998 5  98165372.90012  98165300.775 5  94075060.104 5        31.500          13.900          33.700          33.500
J01  37007106.844 6  37007114.332 6  37007119.102 7      -490.324 6      -381.579 6      -365.680 7 194473611.530 6 151537872.021 6 145223791.325 7        36.900          38.500          44.300
J02  39530756.375 7  39530761.980 8  39530765.234 8       305.590 7       236.952 8       227.079 8 207735521.916 7 161871830.591 8 155127170.437 8        47.900          49.800          51.700
J03  37533755.219 7  37533761.199 8  37533764.930 8      -292.668 7      -227.267 8      -217.798 8 197241286.112 7 153694484.291 8 147290548.516 8        46.500          48.700          51.000
J07  36817719.984 6  36817726.184 8  36817730.121 8        -2.594 6        -2.087 8        -2.001 8 193478437.007 6 150762392.952 8 144480625.448 8        40.200          48.700          52.000
R03  22169965.508 7  22169964.820 7  22169970.918 6  22169970.559 6     -4168.313 7     -4165.136 7     -3239.545 6     -3239.545 6 118677565.264 7 118677540.268 7  92304747.938 6  92304753.920 6        44.000          42.300          38.900          38.400
R04  20106674.563 8  20106673.590 8  20106677.680 8  20106677.434 7     -1234.254 8     -1221.497 8      -950.053 8      -950.053 7 107670352.000 8 107670352.012 8  83743612.592 8  83743611.597 7        51.500          50.300          48.200          46.900
R05  22009811.195 7  22009810.504 7  22009815.785 7  22009815.250 7      2400.754 7      2411.484 7      1875.598 7      1875.598 7 117655242.249 7 117655052.249 7  91509484.035 7  91509505.036 7        46.600          45.900          42.600          42.400
R13  22514974.258 6  22514972.676 6  22514978.637 5  22514977.375 5     -2058.008 6     -2058.459 6     -1601.022 5     -1601.022 5 120228774.672 6 120228758.715 6  93511264.138 5  93511270.132 5        40.400          38.200          35.600          35.600
R14  20503526.594 8  20503525.914 8  20503531.500 7  20503530.051 7      -458.293 8      -456.553 8      -355.097 7      -355.096 7 109295373.476 8 109295376.484 8  85007527.554 7  85007542.543 7        51.200          50.400          47.500          46.500
R15  21997135.570 7  21997135.941 7  21997138.988 7  21997140.824 6      1508.156 7      1510.037 7      1174.472 7      1174.472 6 117546042.790 7 117546067.794 7  91424736.205 7  91424744.212 6        46.100          44.400          42.100          41.700
R17  23438981.648 6  23438980.785 5  23438989.262 5  23438991.691 5      4000.121 6      3999.117 5      3110.407 5      3110.407 5 125426709.167 6 125426752.160 5  97554149.509 5  97554167.498 5        37.600          35.900          34.500          32.900
R23  22097756.063 7  22097755.824 7  22097763.367 6  22097764.414 5      -388.926 7      -376.367 7      -292.731 6      -292.731 5 118208207.551 7 118208197.552 7  91939701.137 6  91939750.160 5        44.700          43.100          37.100          35.400
R24  21686611.375 7  21686610.504 6  21686616.000 5  21686614.770 5      2618.367 7      2626.709 6      2042.995 5      2042.994 5 115968185.928 7 115968195.933 6  90197394.967 5  90197429.982 5        42.900          41.400          32.600          31.200
S22  37583177.938 6  37582617.984 7        65.121 6        48.653 7 197457027.847 6 147449768.350 7        41.900          43.400
S29  37669323.313 6                        -6.574 6                 197953607.238 6                        38.900
S30  37502181.875 7                       -37.344 7                 197075292.697 7                        43.600
S32  37212249.031 6                         -.922 6                 195551664.826 6                        37.600
S37  37669311.000 6                        -6.852 6                 197953532.101 6                        39.200
S40  37029699.875 7                        45.887 7                 194568704.278 7                        45.200
> 2019 02 14 07 03 30.0000000  0 51
C01  37348299.602 6  37348284.488 7  37348290.223 7        37.422 6        30.298 7        28.831 7 194482375.765 6 158032797.251 7 150386061.995 7        40.700          43.200          44.400
C02  37829978.547 6  37829968.027 7  37829972.867 7       -18.523 6       -15.072 7       -14.343 7 196990603.360 6 160070951.201 7 152325594.445 7        37.300          42.100          43.200
C03  36798203.141 6  36798192.215 7  36798198.348 7        25.422 6        20.485 7        19.494 7 191617882.627 6 155705176.675 7 148171071.866 7        41.700          44.300          44.500
C04  38688925.867 6  38688914.141 6  38688919.859 6        21.777 6        17.605 6        16.753 6 201463419.291 6 163705429.833 6 155784219.728 6        36.600          40.300          38.800
C05  39559965.336 5  39559955.785 6  39559961.930 6       -15.246 5                                 205999137.70815 167391116.60616 159291569.48616        33.700          38.600          37.700
C06  36354592.445 7  36354579.129 7  36354587.012 7      -944.461 7      -765.636 7      -728.589 7 189307896.611 7 153828116.129 7 146384845.113 7        44.700          46.700          45.100
C07  36254579.805 7  36254565.051 7  36254573.773 7      -207.621 7      -168.847 7      -160.677 7 188787133.430 7 153404954.010 7 145982165.054 7        47.600          47.800          47.600
C09  35731859.141 7  35731846.000 7  35731856.023 8      -462.328 7      -373.744 7      -355.659 8 186065157.688 7 151193130.952 7 143877366.201 8        47.000          47.300          48.500
C10  37000664.789 7  37000652.488 7  37000661.746 7       -70.375 7       -57.041 7       -54.282 7 192672201.096 7 156561925.069 7 148986363.612 7        45.200          46.000          45.100
C11  23403091.547 7  23403079.664 7  23403088.711 7      1140.012 7       932.165 7       887.060 7 121866078.238 7  99026138.898 7  94234587.460 7        45.000          46.000          45.500
C16  36574390.336 7  36574380.406 7  36574390.266 7     -1039.660 7      -843.041 7      -802.248 7 190452437.826 7 154758220.842 7 147269897.214 7        47.200          44.700          45.000
C18  36920062.422 7  36920054.297 7                       -35.539 7       -29.328 7                 192252465.486 7 156220850.256 7                        46.700          45.900
C23  22740623.859 8  22740607.566 8                       788.570 8       641.658 8                 118416424.942 8  96222994.942 8                        49.600          49.700
C25  22969302.578 8  22969292.652 8                     -1004.324 8      -815.234 8                 119607213.955 8  97190675.382 8                        48.500          48.400
C28  26162467.203 4  26162464.602 5                      3121.309 4      2535.044 5                 136234833.71114 110701937.53515                        29.100          35.400
E02  27392669.328 6  27392677.250 6  27392674.285 6  27392675.012 7      1590.980 6      1189.072 6      1220.091 6      1204.581 7 143949451.614 6 107494755.618 6 110298950.723 6 108896848.764 7        37.200          40.600          41.000          43.600
E03  24882201.375 7  24882207.023 8  24882204.020 8  24882205.547 8       886.445 7       666.708 8       684.100 8       675.404 8 130756863.214 7  97643153.198 8 100190346.502 8  98916744.952 8        47.800          48.000          48.300          51.300
E05  24121701.305 8  24121708.352 8  24121704.527 8  24121705.840 8     -1783.570 8     -1327.922 8     -1362.564 8     -1345.243 8 126760397.986 8  94658739.487 8  97128097.803 8  95893418.749 8        50.000          51.000          51.000          53.700
E09  25334212.320 6  25334224.637 6  25334220.555 6  25334221.777 7     -3043.008 6     -2272.194 6     -2331.470 6     -2301.832 7 133132103.836 6  99416830.451 6 102010298.020 6 100713558.845 7        36.000          40.200          40.300          42.800
E14  17734389.430 8  17734403.609 8  17734400.582 8  17734401.633 8      1910.934 8      1441.454 8      1479.057 8      1460.256 8  93194858.976 8  69593589.144 8  71409072.880 8  70501330.618 8        49.300          51.500          50.800          53.400
E24  22861951.320 8  22861968.168 8  22861964.121 8  22861965.648 8     -1341.547 8     -1001.832 8     -1027.966 8     -1014.899 8 120140400.599 8  89715244.684 8  92055641.343 8  90885443.615 8        48.400          49.500          48.800          52.000
E25  23581533.820 8  23581540.031 8  23581536.559 8  23581537.992 8       279.270 8       209.734 8       215.205 8       212.469 8 123921816.434 8  92539023.694 8  94953085.580 8  93746054.246 8        49.900          51.500          51.200          53.700
G03  23449689.227 7  23449698.180 4  23449699.277 6  23449700.672 7     -1589.129 7     -1234.010 4     -1234.009 6     -1182.592 7 123228873.115 7  96022588.341 4  96022570.326 6  92021628.453 7        42.300          28.300          40.400          47.000
G14  22205772.133 7  22205778.516 4                                     -2876.324 7     -2236.943 4                                 116692094.412 7  90928956.999 4                                        43.800          29.300
G16  20326626.242 8  20326631.332 7                                       598.625 8       472.352 7                                 106817371.911 8  83234184.441 7                                        49.100          42.300
G21  25485357.891 4                                                      1074.941 4                                                                                                                        29.900
G22  24021965.430 6  24021971.852 3                                     -1982.438 6     -1542.970 3                                 126236218.471 6  98365943.048 3                                        38.600          22.600
G23  23095283.734 7  23095288.258 5                                      2995.586 7      2337.317 5                                 121366637.634 7  94571354.939 5                                        43.800          31.000
G26  20441103.820 8  20441112.285 7  20441112.000 8  20441111.590 9     -1018.633 8      -789.802 7      -789.803 8      -756.894 9 107418820.972 8  83702975.808 7  83702933.821 8  80215311.839 9        52.400          45.300          49.800          54.700
G27  22596563.664 7  22596572.641 5  22596572.781 7  22596573.090 8      3524.387 7      2748.909 5      2748.909 7      2634.370 8 118745866.975 7  92529328.366 5  92529249.375 7  88673869.040 8        42.700          31.800          44.900          48.000
G31  21753641.531 8  21753647.414 6  21753647.363 7                     -1227.164 8      -954.387 6      -954.387 7                 114316201.563 8  89077606.254 6  89077573.268 7                        49.000          37.700          45.800
G32  23993456.313 5  23993469.473 2  23993469.527 5  23993470.914 5     -3589.742 5                     -2795.439 5     -2678.963 5 126086423.804 5  98249235.97612  98249163.935 5  94155428.981 5        32.200          14.800          34.600          34.200
J01  37009908.781 6  37009915.520 6  37009920.363 7      -490.895 6      -382.338 6      -366.406 7 194488331.556 6 151549342.160 6 145234783.505 7        36.600          37.800          43.800
J02  39529003.313 8  39529009.082 8  39529012.059 8       308.801 8       239.313 8       229.342 8 207726308.357 8 161864651.187 8 155120290.175 8        48.000          50.400          51.700
J03  37535432.266 7  37535438.242 8  37535442.176 8      -294.684 7      -228.918 8      -219.380 8 197250099.452 7 153701351.842 8 147297129.926 8        46.300          48.700          51.000
J07  36817735.516 6  36817741.766 8  36817745.379 8        -2.504 6        -2.083 8        -1.996 8 193478517.144 6 150762455.432 8 144480685.316 8        39.900          48.800          52.200
R03  22193343.047 7  22193342.262 7  22193347.035 6  22193347.090 6     -4174.414 7     -4171.426 7     -3244.437 6     -3244.438 6 118802708.043 7 118802683.046 7  92402081.055 6  92402087.067 6        43.900          42.600          37.900          36.900
R04  20113659.977 8  20113659.020 8  20113663.227 8  20113663.789 7     -1259.469 8     -1246.932 8      -969.836 8      -969.836 7 107707759.962 8 107707759.982 8  83772707.665 8  83772706.664 7        51.400          50.200          48.100          47.400
R05  21996398.805 7  21996397.715 7  21996403.500 7  21996402.805 7      2379.316 7      2389.966 7      1858.861 7      1858.861 7 117583543.283 7 117583353.284 7  91453718.190 7  91453739.201 7        46.800          45.000          43.200          42.300
R13  22526535.266 6  22526532.613 6  22526539.199 6  22526538.648 6     -2057.094 6     -2057.740 6     -1600.464 6     -1600.465 6 120290506.903 6 120290490.918 6  93559278.055 6  93559284.068 6        39.200          37.700          36.100          36.700
R14  20506114.883 8  20506113.984 8  20506119.246 7  20506118.789 7      -461.527 8      -459.938 8      -357.729 7      -357.730 7 109309171.617 8 109309174.619 8  85018259.437 7  85018274.432 7        51.800          50.300          47.500          46.600
R15  21988680.039 7  21988680.094 7  21988683.516 7  21988684.684 7      1504.441 7      1506.207 7      1171.493 7      1171.493 7 117500856.586 7 117500881.592 7  91389591.405 7  91389599.418 7        46.500          44.700          42.700          42.100
R17  23416549.320 6  23416548.914 6  23416559.586 5  23416561.172 5      4002.023 6      4000.956 6      3111.836 5      3111.835 5 125306680.459 6 125306723.469 6  97460794.435 5  97460812.433 5        37.200          36.300          34.600          33.800
R23  22100010.086 7  22100008.004 7  22100014.066 6  22100015.738 5      -414.039 7      -401.530 7      -312.301 6      -312.300 5 118220253.433 7 118220243.438 7  91949070.179 6  91949119.173 5        44.500          43.900          36.800          35.400
R24  21671970.078 7  21671968.773 6  21671972.926 5  21671972.645 5      2601.602 7      2609.926 6      2029.939 5      2029.940 5 115889888.160 7 115889898.157 6  90136496.786 5  90136531.778 5        43.100          40.800          32.200          31.400
S22  37582800.031 7  37582239.871 7        65.031 7        48.745 7 197455075.356 7 147448305.986 7        42.400          43.200
S29  37669352.922 6                        -6.645 6                 197953806.222 6                        38.300
S30  37502392.047 7                       -37.340 7                 197076414.492 7                        43.600
S32  37212255.797 6                        -1.598 6                 195551694.990 6                        37.200
S37  37669353.656 6                        -6.523 6                 197953730.084 6                        39.000
S40  37029537.281 7                        45.949 7                 194567312.569 7                        45.300
> 2019 02 14 07 04  0.0000000  0 52
C01  37348084.648 6  37348069.754 7  37348075.465 7        37.492 6        30.298 7        28.831 7 194481257.187 6 158031888.318 7 150385197.054 7        40.700          43.000          44.700
C02  37830084.875 6  37830074.484 7  37830078.969 7       -18.156 6       -15.011 7       -14.285 7 196991157.536 6 160071401.518 7 152326022.984 7        37.300          42.000          43.200
C03  36798058.313 6  36798047.113 7  36798053.258 7        25.402 6        20.487 7        19.496 7 191617126.252 6 155704562.070 7 148170487.000 7        41.700          44.700          44.700
C04  38688800.180 6  38688789.164 6  38688794.945 6        21.828 6        17.628 6        16.775 6 201462768.454 6 163704900.993 6 155783716.476 6        36.900          40.600          39.200
C05  39560052.695 5  39560043.457 6  39560049.910 5       -13.387 5                                                                                        33.300          36.100          34.900
C06  36360046.711 7  36360033.441 7  36360041.422 7      -948.746 7      -769.300 7      -732.076 7 189336298.671 7 153851195.130 7 146406807.395 7        45.400          46.200          45.700
C07  36255775.805 7  36255760.699 7  36255769.309 8      -207.156 7      -168.648 7      -160.488 8 188793359.798 7 153410013.453 7 145986979.682 8        47.600          47.800          48.600
C09  35734537.477 7  35734524.953 7  35734534.418 8      -467.289 7      -377.802 7      -359.521 8 186079105.909 7 151204465.020 7 143888151.842 8        47.200          47.300          48.500
C10  37001072.109 7  37001059.949 7  37001069.051 7       -70.758 7       -57.461 7       -54.681 7 192674322.520 7 156563648.900 7 148988004.030 7        44.800          46.300          44.900
C11  23396565.219 7  23396553.000 7  23396562.633 7      1125.852 7       920.489 7       875.948 7 121832094.370 7  98998524.241 7  94208309.006 7        44.900          46.300          46.400
C16  36580393.820 7  36580383.727 7  36580393.746 7     -1044.078 7      -846.748 7      -805.777 7 190483699.216 7 154783623.284 7 147294070.512 7        46.500          45.000          44.700
C18  36920266.195 7  36920258.102 7                       -34.754 7       -28.713 7                 192253525.558 7 156221711.652 7                        46.200          45.800
C23  22736088.938 8  22736072.770 8                       786.156 8       639.642 8                 118392809.756 8  96203805.678 8                        49.400          49.800
C25  22975096.289 8  22975086.184 8                     -1006.535 8      -817.175 8                 119637383.546 8  97215190.639 8                        48.600          48.400
C28  26144473.344 4  26144471.559 5                      3125.047 4      2538.239 5                                                                        29.600          34.800
E02  27383597.938 6  27383605.457 6  27383601.715 6  27383603.152 7      1587.719 6      1186.654 6      1217.609 6      1202.131 7 143901779.010 6 107459156.009 6 110262422.437 6 108860784.831 7        37.900          40.400          39.800          43.300
E03  24877178.828 8  24877184.789 8  24877181.457 8  24877182.867 8       873.598 8       657.003 8       674.143 8       665.573 8 130730468.803 8  97623443.093 8 100170122.216 8  98896777.757 8        48.300          49.000          48.800          51.300
E05  24131914.844 8  24131921.652 8  24131918.168 8  24131919.500 8     -1794.273 8     -1336.018 8     -1370.871 8     -1353.445 8 126814071.093 8  94698820.038 8  97169223.926 8  95934022.092 8        50.400          50.300          50.500          52.800
E09  25351586.688 5  25351599.059 6  25351594.711 6  25351596.250 7     -3043.410 5     -2272.626 6     -2331.914 6     -2302.270 7 133223404.840 5  99485009.228 6 102080255.435 6 100782626.932 7        34.800          40.200          39.600          42.600
E14  17723592.563 8  17723607.484 8  17723604.531 8  17723605.059 8      1871.820 8      1412.281 8      1449.123 8      1430.702 8  93138122.112 8  69551220.723 8  71365599.203 8  70458409.562 8        49.000          50.600          50.900          53.000
E24  22869611.672 8  22869628.918 8  22869624.637 8  22869626.289 8     -1341.844 8     -1002.062 8     -1028.203 8     -1015.133 8 120180657.389 8  89745306.541 8  92086487.444 8  90915897.597 8        49.300          49.000          48.900          52.000
E25  23579949.961 8  23579956.285 8  23579952.523 8  23579954.047 8       276.004 8       207.194 8       212.599 8       209.897 8 123913492.622 8  92532807.871 8  94946707.600 8  93739757.340 8        50.400          50.900          50.700          53.400
G03  23458794.898 7  23458803.734 4  23458804.023 6  23458805.605 7     -1600.398 7     -1242.835 4     -1242.836 6     -1191.051 7 123276722.342 7  96059873.406 4  96059855.417 6  92057359.972 7        42.500          27.900          41.400          45.800
G14  22222225.906 7  22222232.879 4                                     -2887.574 7     -2245.840 4                                 116778559.313 7  90996332.208 4                                        43.200          29.500
G16  20323252.633 8  20323257.988 7                                       583.473 8       460.438 7                                 106799645.051 8  83220371.312 7                                        49.000          42.100
G21  25479241.711 5  25479249.172 2                                      1068.832 5                                                 133894352.79915 104333264.07512                                        32.600          13.900
G22  24033298.320 6  24033304.813 4                                     -1987.289 6     -1546.822 4                                 126295771.245 6  98412347.715 4                                        38.400          24.900
G23  23078206.953 7  23078211.219 4                                      2987.316 7      2330.881 4                                 121276898.700 7  94501428.519 4                                        43.800          29.800
G26  20446949.273 8  20446958.176 7  20446957.676 8  20446957.133 9     -1028.898 8      -797.898 7      -797.898 8      -764.652 9 107449540.054 8  83726912.751 7  83726870.757 8  80238251.409 9        52.100          45.400          50.000          54.500
G27  22576464.492 7  22576473.766 5  22576474.164 7  22576474.293 8      3517.289 7      2743.375 5      2743.375 7      2629.067 8 118640246.912 7  92447027.109 5  92446948.134 7  88594997.026 8        43.600          32.600          44.700          48.100
G31  21760662.625 8  21760668.180 6  21760668.422 7                     -1232.078 8      -958.326 6      -958.325 7                 114353097.126 8  89106356.019 6  89106323.018 7                        49.300          37.300          45.300
G32  24013966.289 5  24013978.563 2  24013978.824 5  24013980.535 5     -3594.809 5     -2799.363 2     -2799.365 5     -2682.721 5 126194199.630 5  98333216.875 2  98333144.877 5  94235910.626 5        34.400          16.300          34.600          31.600
J01  37012714.703 6  37012722.219 6  37012726.762 7      -491.867 6      -383.083 6      -367.121 7 194503080.372 6 151560834.665 6 145245797.136 7        36.800          38.600          44.700
J02  39527232.563 7  39527238.313 8  39527241.316 8       311.941 7       241.678 8       231.608 8 207717003.771 7 161857400.848 8 155113341.939 8        47.800          49.500          52.000
J03  37537121.391 7  37537127.102 8  37537131.273 8      -296.676 7      -230.566 8      -220.959 8 197258976.216 7 153708268.810 8 147303758.691 8        46.300          48.600          51.400
J07  36817751.453 6  36817756.516 8  36817760.551 8        -2.320 6        -2.075 8        -1.989 8 193478597.008 6 150762517.689 8 144480744.996 8        40.100          49.000          52.200
R03  22216754.734 7  22216754.375 7  22216760.535 6  22216759.824 6     -4180.461 7     -4177.568 7     -3249.215 6     -3249.215 6 118928035.078 7 118928010.078 7  92499557.505 6  92499563.515 6        43.800          43.000          38.700          37.900
R04  20120787.766 8  20120787.141 8  20120791.520 8  20120791.750 7     -1284.711 8     -1272.296 8      -989.563 8      -989.563 7 107745928.850 8 107745928.870 8  83802394.562 8  83802393.560 7        51.300          49.900          48.200          47.700
R05  21983107.625 7  21983106.676 7  21983111.191 7  21983111.047 6      2357.816 7      2368.363 7      1842.060 7      1842.060 6 117512492.403 7 117512302.411 7  91398456.398 7  91398477.401 6        46.800          45.200          42.500          41.500
R13  22538091.383 6  22538090.273 6  22538093.805 5  22538095.105 6     -2056.359 6     -2056.999 6     -1599.887 5     -1599.887 6 120352216.883 6 120352200.880 6  93607274.674 5  93607280.686 6        40.000          38.800          35.900          36.100
R14  20508722.656 8  20508721.512 8  20508726.266 7  20508726.121 7      -464.734 8      -463.298 8      -360.344 7      -360.344 7 109323070.576 8 109323073.571 8  85029069.755 7  85029084.743 7        51.500          50.100          47.700          46.600
R15  21980245.164 7  21980245.188 7  21980249.668 7  21980249.703 7      1500.766 7      1502.406 7      1168.535 7      1168.536 7 117455784.421 7 117455809.418 7  91354535.354 7  91354543.339 7        45.600          44.300          42.200          42.000
R17  23394109.188 6  23394108.699 5  23394118.438 5  23394121.535 5      4003.633 6      4002.668 5      3113.166 5      3113.166 5 125186600.464 6 125186643.419 5  97367399.466 5  97367417.456 5        36.600          34.400          34.700          33.600
R23  22102402.359 7  22102401.684 7  22102407.746 6  22102408.980 6      -439.020 7      -426.689 7      -331.869 6      -331.870 6 118233054.102 7 118233044.121 7  91959026.260 6  91959075.261 6        46.600          44.100          37.300          36.000
R24  21657421.703 7  21657421.773 6  21657426.027 5  21657425.117 5      2584.711 7      2593.009 6      2016.783 5      2016.782 5 115812097.872 7 115812107.876 6  90075993.293 5  90076028.310 5        43.400          40.900          32.100          31.200
S22  37582424.031 6  37581862.156 7        65.434 6        48.606 7 197453123.572 6 147446847.816 7        41.700          43.400
S27  39746757.891 5  39746755.145 6        -1.902 5                 208870644.27915                        31.800          38.000
S29  37669394.797 6                        -6.496 6                 197954006.716 6                        38.700
S30  37502605.734 7                       -37.316 7                 197077539.495 7                        43.500
S32  37212254.656 6                         -.945 6                 195551726.235 6                        37.100
S37  37669377.719 6                        -6.156 6                 197953930.587 6                        38.900
S40  37029378.563 7                        46.383 7                 194565930.346 7                        44.900
> 2019 02 14 07 04 30.0000000  0 51
C01  37347869.961 6  37347855.020 7  37347860.578 7        37.004 6        30.293 7        28.827 7 194480138.782 6 158030979.533 7 150384332.243 7        40.600          43.100          44.900
C02  37830191.273 6  37830180.574 7  37830185.102 7       -18.684 6       -14.964 7       -14.240 7 196991709.969 6 160071850.432 7 152326450.172 7        37.400          42.000          43.100
C03  36797912.664 6  36797901.770 7  36797907.871 7        24.941 6        20.482 7        19.491 7 191616370.051 6 155703947.600 7 148169902.268 7        41.800          43.700          44.800
C04  38688675.008 6  38688664.027 6  38688669.590 6        21.426 6        17.646 6        16.792 6 201462116.975 6 163704371.628 6 155783212.725 6        37.000          40.100          39.100
C05  39560140.000 5  39560130.953 5  39560137.820 5       -17.578 5                                                                                        33.100          34.000          34.100
C06  36365526.781 7  36365514.145 7  36365521.777 7      -953.762 7      -772.969 7      -735.567 7 189364836.199 7 153874384.207 7 146428874.417 7        44.700          46.300          45.500
C07  36256970.109 7  36256954.879 7  36256963.719 7      -207.391 7      -168.446 7      -160.295 7 188799578.711 7 153415066.826 7 145991788.542 7        47.600          47.800          47.500
C09  35737244.703 7  35737232.305 7  35737241.578 8      -472.742 7      -381.873 7      -363.396 8 186093204.426 7 151215921.214 7 143899053.709 8        46.700          47.600          48.300
C10  37001482.992 7  37001470.160 7  37001479.844 7       -71.746 7       -57.879 7       -55.078 7 192676459.366 7 156565385.267 7 148989656.379 7        45.000          45.800          45.800
C11  23390122.398 7  23390110.164 7  23390119.355 7      1110.867 7       908.759 7       864.786 7 121798543.573 7  98971261.460 7  94182365.428 7        45.800          46.600          46.600
C16  36586423.484 7  36586413.484 7  36586423.473 7     -1049.152 7      -850.460 7      -809.309 7 190515097.665 7 154809137.093 7 147318349.782 7        46.200          44.500          44.900
C18  36920465.398 7  36920457.305 7                       -34.523 7       -28.096 7                 192254562.841 7 156222554.532 7                        47.200          46.000
C23  22731568.188 8  22731551.836 8                       783.152 8       637.620 8                 118369269.243 8  96184677.079 8                        49.600          49.600
C25  22980903.773 7  22980894.188 8                     -1009.551 7      -819.129 8                 119667625.251 7  97239764.495 8                        47.900          48.200
C28  26126461.414 4  26126457.836 5                      3128.262 4      2540.651 5                 136047343.13914 110549586.25715                        29.400          34.800
E02  27374544.102 6  27374552.059 6  27374548.520 6  27374549.750 7      1583.949 6      1184.239 6      1215.132 6      1199.686 7 143854203.396 6 107423628.841 6 110225968.462 6 108824794.252 7        37.600          40.500          40.200          43.200
E03  24872230.469 8  24872237.391 8  24872233.246 8  24872234.578 8       859.961 8       647.271 8       664.157 8       655.714 8 130704465.382 8  97604024.950 8 100150197.498 8  98877106.326 8        48.300          49.400          48.600          51.100
E05  24142190.391 8  24142197.086 8  24142193.676 8  24142194.863 8     -1805.551 8     -1344.088 8     -1379.152 8     -1361.620 8 126868068.396 8  94739142.683 8  97210598.477 8  95974870.684 8        50.100          50.500          50.700          53.500
E09  25368964.016 5  25368976.488 6  25368971.887 6  25368973.695 6     -3044.672 5     -2273.022 6     -2332.320 6     -2302.671 6 133314721.771 5  99553199.881 6 102150225.037 6 100851707.075 6        33.900          39.300          38.900          41.800
E14  17713019.961 8  17713034.582 8  17713031.336 8  17713032.449 8      1831.988 8      1382.973 8      1419.050 8      1401.011 8  93082562.664 8  69509731.540 8  71323027.703 8  70416379.226 8        48.900          50.900          50.900          53.100
E24  22877274.039 8  22877291.262 8  22877287.277 8  22877288.590 8     -1342.613 8     -1002.287 8     -1028.434 8     -1015.360 8 120220923.178 8  89775375.150 8  92117340.452 8  90946358.408 8        49.000          48.800          49.100          51.600
E25  23578385.320 8  23578391.309 8  23578387.883 8  23578389.348 8       272.039 8       204.668 8       210.007 8       207.338 8 123905270.303 8  92526667.837 8  94940407.390 8  93733537.212 8        50.300          50.800          50.800          53.700
G03  23467964.648 7  23467973.551 4  23467973.594 6  23467975.059 7     -1612.121 7     -1251.599 4     -1251.599 6     -1199.448 7 123324908.978 7  96097421.369 4  96097403.383 6  92093343.423 7        42.600          28.500          41.600          45.400
G14  22238744.461 7  22238751.004 4                                     -2899.543 7     -2254.703 4                                 116865365.397 7  91063973.287 4                                        43.000          29.800
G16  20319966.531 8  20319972.313 7                                       567.676 8       448.535 7                                 106782376.408 8  83206915.248 7                                        49.300          42.100
G21  25473158.156 5  25473166.547 2                                      1062.234 5                                                 133862387.09815 104308355.93912                                        32.600          15.600
G22  24044659.172 6  24044665.277 4                                     -1992.613 6     -1550.609 4                                 126355469.804 6  98458865.995 4                                        38.300          24.600
G23  23061177.953 7  23061182.375 4                                      2978.402 7      2324.363 4                                 121187410.724 7  94431697.642 4                                        43.900          29.700
G26  20452853.891 8  20452862.871 7  20452862.555 8  20452861.656 9     -1039.738 8      -805.951 7      -805.951 8      -772.369 9 107480569.169 8  83751091.276 7  83751049.273 8  80261422.491 9        51.800          45.300          50.200          54.600
G27  22556406.633 7  22556416.070 5  22556416.383 7  22556416.246 8      3509.453 7      2737.754 5      2737.755 7      2623.682 8 118534843.227 7  92364894.485 5  92364815.473 7  88516286.577 8        43.000          32.400          44.600          48.000
G31  21767712.672 8  21767718.125 6  21767718.309 7                     -1237.789 8      -962.289 6      -962.289 7                 114390145.260 8  89135224.675 6  89135191.674 7                        49.600          38.100          45.100
G32  24034504.359 5  24034516.227 2  24034517.004 5  24034514.898 4     -3600.215 5     -2803.233 2     -2803.234 5     -2686.429 4 126302124.538 5  98417313.877 2  98417241.888 5  94316503.507 4        34.300          14.800          34.600          29.200
J01  37015527.188 6  37015534.172 6  37015538.703 7      -493.258 6      -383.821 6      -367.829 7 194517857.590 6 151572349.307 6 145256832.008 7        36.400          38.400          44.200
J02  39525444.688 8  39525450.535 8  39525453.402 8       314.363 8       244.032 8       233.864 8 207707608.548 8 161850079.895 8 155106326.023 8        48.900          49.500          51.900
J03  37538822.906 7  37538828.715 8  37538832.547 8      -299.410 7      -232.219 8      -222.543 8 197267916.629 7 153715235.370 8 147310434.985 8        46.500          48.800          51.500
J07  36817766.250 6  36817771.801 8  36817775.730 8        -2.910 6        -2.073 8        -1.987 8 193478676.837 6 150762579.886 8 144480804.603 8        40.300          48.800          52.700
R03  22240200.484 7  22240200.875 7  22240205.984 6  22240206.145 6     -4186.770 7     -4183.575 7     -3253.886 6     -3253.885 6 119053542.307 7 119053517.328 7  92597174.090 6  92597180.083 6        43.900          43.400          39.700          38.700
R04  20128056.992 8  20128056.047 8  20128061.543 7  20128060.645 7     -1310.504 8     -1297.589 8     -1009.235 7     -1009.235 7 107784856.513 8 107784856.525 8  83832671.603 7  83832670.610 7        51.200          49.300          47.600          47.300
R05  21969937.289 7  21969936.023 7  21969940.602 6  21969940.844 6      2335.508 7      2346.647 7      1825.169 6      1825.170 6 117442092.987 7 117441903.000 7  91343701.329 6  91343722.313 6        45.800          44.900          41.600          41.900
R13  22549641.977 6  22549641.594 6  22549648.410 5  22549646.684 5     -2056.176 6     -2056.308 6     -1599.348 5     -1599.349 5 120413906.108 6 120413890.123 6  93655255.127 5  93655261.165 5        39.400          38.300          35.400          35.200
R14  20511348.617 8  20511347.871 8  20511353.012 7  20511351.977 7      -468.586 8      -466.641 8      -362.942 7      -362.943 7 109337069.796 8 109337072.790 8  85039958.019 7  85039973.020 7        51.900          50.200          46.900          46.200
R15  21971831.469 7  21971831.594 7  21971836.137 7  21971836.434 7      1496.512 7      1498.637 7      1165.606 7      1165.605 7 117410825.319 7 117410850.317 7  91319567.176 7  91319575.179 7        46.300          44.700          42.600          42.900
R17  23371661.547 5  23371659.988 5  23371669.590 5  23371672.234 5      4004.492 5      4004.230 5      3114.383 5      3114.382 5 125066473.552 5 125066516.516 5  97273967.969 5  97273986.007 5        35.500          33.500          32.900          30.500
R23  22104936.773 7  22104935.988 7  22104942.586 6  22104943.715 6      -464.809 7      -451.869 7      -351.454 6      -351.454 6 118246610.180 7 118246600.191 7  91969569.865 6  91969618.880 6        46.200          44.900          38.300          36.300
R24  21642968.594 6  21642969.031 6  21642972.379 5  21642973.523 5      2567.152 6      2575.937 6      2003.627 5      2003.504 5 115734819.768 6 115734829.771 6  90015888.15615  90015923.182 5        41.500          40.000          31.100          30.300
S22  37582043.141 6  37581484.727 7        64.613 6        48.608 7 197451171.524 6 147445389.577 7        41.700          44.200
S29  37669432.016 6                        -6.699 6                 197954203.955 6                        38.200
S30  37502827.953 7                       -37.969 7                 197078667.990 7                        43.500
S32  37212257.891 6                        -1.215 6                 195551756.779 6                        37.500
S37  37669422.359 6                        -6.813 6                 197954129.906 6                        39.000
S40  37029219.141 7                        45.934 7                 194564537.398 7                        45.100
> 2019 02 14 07 05  0.0000000  0 51
C01  37347654.867 6  37347640.105 7  37347645.707 7        37.430 6        30.303 7        28.837 7 194479020.003 6 158030070.440 7 150383467.142 7        40.900          43.500          44.400
C02  37830296.609 6  37830286.230 6  37830290.637 7       -18.195 6       -14.897 6       -14.176 7 196992259.940 6 160072297.333 6 152326875.464 7        37.600          41.700          42.700
C03  36797767.547 6  36797756.496 7  36797762.590 7        25.254 6        20.493 7        19.502 7 191615613.448 6 155703332.809 7 148169317.222 7        41.700          44.100          44.700
C04  38688549.875 6  38688538.652 6  38688544.559 6        21.832 6        17.675 6        16.820 6 201461464.396 6 163703841.367 6 155782708.129 6        36.900          41.000          39.200
C06  36371032.922 7  36371020.332 7  36371028.066 7      -957.949 7      -776.616 7      -739.038 7 189393508.371 7 153897682.688 7 146451045.558 7        44.600          46.600          45.200
C07  36258162.930 7  36258147.668 7  36258156.410 7      -206.820 7      -168.219 7      -160.079 7 188805789.230 7 153420113.384 7 145996590.916 7        47.800          47.400          47.000
C09  35739981.438 7  35739968.410 8  35739978.180 8      -477.336 7      -385.930 8      -367.255 8 186107452.702 7 151227499.112 8 143910071.373 8        46.400          48.000          48.100
C10  37001896.078 7  37001883.039 7  37001892.898 7       -71.855 7       -58.268 7       -55.449 7 192678610.572 7 156567133.304 7 148991319.840 7        44.700          45.400          45.900
C11  23383762.742 7  23383750.449 7  23383759.621 7      1096.621 7       897.003 7       853.599 7 121765426.778 7  98944351.381 7  94156757.450 7        45.800          46.400          46.200
C16  36592479.336 7  36592469.465 7  36592479.391 7     -1053.316 7      -854.151 7      -812.821 7 190546632.356 7 154834761.615 7 147342734.406 7        46.700          44.600          45.200
C18  36920660.164 7  36920651.949 7                       -33.246 7       -27.456 7                 192255576.486 7 156223378.209 7                        46.600          46.200
C23  22727061.648 8  22727045.234 8                       781.082 8       635.617 8                 118345802.645 8  96165608.556 8                        50.000          49.500
C25  22986725.680 8  22986715.484 8                     -1011.516 8      -821.071 8                 119697938.672 8  97264396.636 8                        48.800          48.300
C28  26108426.555 5  26108423.879 5                      3132.098 5      2543.062 5                 135953437.42715 110473280.23315                        30.100          34.900
E02  27365509.141 6  27365516.246 6  27365514.348 6  27365514.609 7      1581.129 6      1181.852 6      1212.683 6      1197.268 7 143806723.668 6 107388173.267 6 110189587.958 6 108788876.211 7        37.500          40.200          41.600          43.300
E03  24867356.547 8  24867363.621 8  24867359.355 8  24867360.746 8       847.266 8       637.536 8       654.168 8       645.852 8 130678853.065 8  97584898.858 8 100130572.472 8  98857730.766 8        48.000          49.800          48.900          51.800
E05  24152527.156 8  24152534.191 8  24152530.281 8  24152531.578 8     -1815.941 8     -1352.110 8     -1387.382 8     -1369.746 8 126922387.937 8  94779705.986 8  97252219.950 8  96015963.073 8        49.800          51.000          50.500          52.900
E09  25386344.133 5  25386356.355 6  25386352.219 6  25386353.875 7     -3044.496 5     -2273.362 6     -2332.669 6     -2303.015 7 133406052.356 5  99621400.726 6 102220205.105 6 100920797.528 7        34.700          39.700          39.500          42.400
E14  17702672.375 8  17702686.891 8  17702684.051 8  17702684.680 8      1792.953 8      1353.554 8      1388.864 8      1371.209 8  93028185.073 8  69469124.930 8  71281361.777 8  70375242.956 8        48.700          50.900          51.000          53.000
E24  22884937.703 8  22884954.609 8  22884950.918 8  22884952.379 8     -1342.527 8     -1002.483 8     -1028.635 8     -1015.559 8 120261196.851 8  89805449.646 8  92148199.501 8  90976825.182 8        49.000          48.800          48.900          51.500
E25  23576839.500 8  23576845.754 8  23576842.398 8  23576843.719 8       269.191 8       202.177 8       207.451 8       204.813 8 123897148.052 8  92520602.539 8  94934183.869 8  93727392.807 8        49.800          51.900          50.500          53.300
G03  23477197.852 7  23477207.355 4  23477207.500 7  23477208.477 7     -1622.723 7     -1260.278 4     -1260.278 7     -1207.766 7 123373429.721 7  96135229.697 4  96135211.719 7  92129576.415 7        42.100          28.600          42.200          44.900
G14  22255327.859 7  22255334.625 4                                     -2910.320 7     -2263.493 4                                 116952509.947 7  91131878.089 4                                        43.000          28.400
G16  20316767.367 8  20316772.633 6                                       552.891 8       436.676 6                                 106765564.372 8  83193814.976 6                                        49.000          41.800
G21  25467110.570 5  25467118.164 2                                      1056.527 5       825.589 2                                 133830601.726 5 104283588.281 2                                        34.000          16.300
G22  24056047.039 6  24056052.551 4                                     -1997.035 6     -1554.313 4                                 126415310.978 6  98505495.381 4                                        39.700          25.600
G23  23044197.141 7  23044201.348 5                                      2970.316 7      2317.794 5                                 121098175.657 7  94362163.831 5                                        44.700          31.100
G26  20458816.938 8  20458825.828 7  20458825.992 8  20458825.051 9     -1049.594 8      -813.948 7      -813.949 8      -780.034 9 107511906.184 8  83775509.728 7  83775467.733 8  80284823.511 9        51.500          45.000          49.800          54.700
G27  22536390.563 7  22536399.840 5  22536399.859 7  22536399.879 7      3502.535 7      2732.067 5      2732.066 7      2618.230 7 118429658.523 7  92282932.461 5  92282853.483 7  88437739.687 7        42.400          32.500          44.700          47.900
G31  21774791.695 8  21774797.180 6  21774797.242 7                     -1242.461 8      -966.238 6      -966.238 7                 114427345.423 8  89164211.811 6  89164178.825 7                        49.000          36.800          45.700
G32  24055069.727 5  24055081.918 2  24055082.121 5  24055078.980 4     -3604.727 5     -2807.029 2     -2807.031 5     -2690.137 4 126410195.591 5  98501524.755 2  98501452.834 5  94397205.59714        34.000          14.800          32.700          29.000
J01  37018344.391 6  37018351.535 6  37018356.105 7      -493.867 6      -384.541 6      -368.519 7 194532662.526 6 151583885.538 6 145267887.564 7        37.900          38.200          44.100
J02  39523639.797 8  39523645.012 8  39523648.387 8       317.797 8       246.399 8       236.133 8 207698122.172 8 161842687.915 8 155099242.046 8        48.800          49.700          52.000
J03  37540536.141 7  37540541.953 8  37540546.016 8      -301.031 7      -233.854 8      -224.110 8 197276919.989 7 153722250.998 8 147317158.281 8        45.900          48.800          51.200
J07  36817781.031 6  36817786.734 8  36817790.762 8        -2.500 6        -2.058 8        -1.973 8 193478756.074 6 150762641.639 8 144480863.785 8        39.900          49.100          52.200
R03  22263680.320 7  22263680.313 7  22263685.438 6  22263685.359 6     -4192.262 7     -4189.414 7     -3258.427 6     -3258.428 6 119179224.737 7 119179199.737 7  92694926.902 6  92694932.918 6        44.500          42.900          39.900          39.800
R04  20135467.594 8  20135466.805 8  20135471.184 7  20135470.992 7     -1335.270 8     -1322.778 8     -1028.827 7     -1028.826 7 107824539.843 8 107824539.863 8  83863536.413 7  83863535.404 7        51.700          49.600          47.700          46.600
R05  21956889.336 7  21956889.371 7  21956893.770 7  21956893.836 6      2313.992 7      2324.855 7      1808.221 7      1808.220 6 117372347.337 7 117372157.352 7  91289454.708 7  91289475.710 6        47.100          45.200          42.600          41.900
R13  22561190.703 6  22561189.938 6  22561195.371 6  22561195.367 5     -2055.207 6     -2055.579 6     -1598.784 6     -1598.783 5 120475573.514 6 120475557.490 6  93703218.637 6  93703224.647 5        39.000          37.500          36.000          35.600
R14  20513993.570 8  20513992.828 8  20513997.664 7  20513997.211 7      -471.504 8      -469.936 8      -365.506 7      -365.506 7 109351167.881 8 109351170.883 8  85050923.195 7  85050938.196 7        51.800          50.500          47.200          46.600
R15  21963439.867 7  21963439.750 7  21963443.660 7  21963444.328 7      1493.203 7      1494.914 7      1162.710 7      1162.711 7 117365977.872 7 117366002.884 7  91284685.876 7  91284693.860 7        46.800          45.300          43.400          43.800
R17  23349203.047 5  23349202.559 5  23349213.328 5  23349215.297 5      4006.434 5      4005.677 5      3115.506 5      3115.505 5 124946303.203 5 124946346.219 5  97180502.785 5  97180520.855 5        34.600          33.300          32.000          30.400
R23  22107612.367 7  22107611.004 7  22107616.797 6  22107618.668 6      -489.512 7      -477.040 7      -371.031 6      -371.030 6 118260921.356 7 118260911.379 7  91980700.806 6  91980749.789 6        45.800          44.400          37.500          36.200
R24  21628616.664 7  21628615.047 6  21628618.430 5  21628618.973 5      2550.199 7      2558.733 6      1990.124 5      1990.125 5 115658057.772 7 115658067.784 6  89956184.444 5  89956219.439 5        42.900          41.300          32.100          31.000
S22  37581668.938 7  37581107.273 7        65.316 7        48.534 7 197449219.456 7 147443933.555 7        42.600          43.900
S27  39746784.359 5  39746778.109 6        -1.473 5                 208870770.92815                        30.700          38.100
S29  37669467.141 6                        -6.305 6                 197954403.508 6                        39.100
S30  37503039.734 7                       -37.598 7                 197079799.350 7                        43.500
S32  37212259.281 6                        -1.102 6                 195551786.932 6                        37.500
S37  37669469.266 6                        -6.578 6                 197954328.182 6                        38.700
S40  37029065.766 7                        46.105 7                 194563147.681 7                        45.100
> 2019 02 14 07 05 30.0000000  0 52
C01  37347440.883 6  37347425.453 7  37347431.172 7        37.145 6        30.262 7        28.798 7 194477902.718 6 158029162.565 7 150382603.197 7        40.800          42.900          43.900
C02  37830401.586 6  37830391.695 6  37830396.273 7       -18.406 6       -14.882 6       -14.162 7 196992809.349 6 160072743.789 6 152327300.314 7        37.300          41.700          42.800
C03  36797622.242 7  36797611.480 7  36797617.516 7        25.035 7        20.454 7        19.464 7 191614858.279 7 155702719.182 7 148168733.289 7        42.000          44.100          44.700
C04  38688424.836 6  38688413.449 6  38688419.020 6        21.641 6        17.659 6        16.804 6 201460812.437 6 163703311.611 6 155782204.018 6        36.500          40.300          38.900
C05  39560313.438 5  39560304.277 6  39560310.785 6       -15.137 5                                 206000955.42815 167392594.07916 159292975.58416        33.300          38.100          37.300
C06  36376565.273 7  36376552.555 7  36376560.137 7      -962.695 7      -780.310 7      -742.553 7 189422316.919 7 153921091.995 7 146473322.147 7        44.400          46.600          45.600
C07  36259354.289 7  36259338.922 8  36259347.699 7      -206.824 7      -168.033 8      -159.902 7 188811992.892 7 153425154.364 8 146001387.979 7        47.300          48.200          47.200
C09  35742746.734 7  35742733.684 7  35742743.234 8      -482.645 7      -390.040 7      -371.168 8 186121852.737 7 151239200.314 7 143921206.399 8        46.900          47.500          48.000
C10  37002312.086 7  37002299.164 7  37002308.898 7       -72.625 7       -58.702 7       -55.862 7 192680777.809 7 156568894.369 7 148992995.687 7        44.300          45.400          45.800
C11  23377486.852 7  23377474.656 7  23377484.051 7      1081.961 7       885.157 7       842.327 7 121732747.319 7  98917796.663 7  94131487.652 7        45.700          46.900          46.300
C16  36598561.867 7  36598551.863 7  36598561.852 7     -1058.195 7      -857.887 7      -816.377 7 190578305.001 7 154860498.235 7 147367225.705 7        46.600          44.600          44.900
C18  36920850.047 7  36920842.246 7                       -32.785 7       -26.855 7                 192256567.950 7 156224183.860 7                        46.400          46.300
C23  22722569.820 8  22722553.375 8                       778.293 8       633.567 8                 118322411.750 8  96146601.549 8                        49.900          49.400
C25  22992561.188 8  22992551.016 8                     -1014.227 8      -823.072 8                 119728325.951 8  97289088.786 8                        48.600          48.500
C28  26090375.773 5  26090370.328 5                      3135.113 5      2545.474 5                 135859429.14515 110396890.86915                        32.000          34.900
E02  27356492.891 6  27356499.332 6  27356497.625 6  27356497.824 7      1577.789 6      1179.432 6      1210.201 6      1194.816 7 143759341.167 6 107352790.319 6 110153281.930 6 108753031.723 7        39.700          40.300          41.400          43.100
E03  24862557.211 7  24862564.082 8  24862560.684 8  24862561.793 8       833.930 7       627.735 8       644.111 8       635.923 8 130653634.467 7  97566066.794 8 100111249.138 8  98838653.068 8        47.300          49.400          48.800          51.600
E05  24162925.141 8  24162932.070 8  24162928.336 8  24162929.680 8     -1826.840 8     -1360.145 8     -1395.627 8     -1377.886 8 126977030.285 8  94820510.325 8  97294088.748 8  96057299.642 8        49.900          50.500          50.100          53.300
E09  25403726.281 5  25403738.844 6  25403734.668 6  25403736.664 6     -3045.313 5     -2273.703 6     -2333.019 6     -2303.361 6 133497396.71815  99689611.817 6 102290195.671 6 100989898.345 6        34.500          39.000          39.500          41.500
E14  17692550.344 8  17692565.707 8  17692561.590 8  17692563.086 8      1753.039 8      1323.966 8      1358.505 8      1341.235 8  92974996.177 8  69429405.950 8  71240606.642 8  70335005.901 8        48.300          51.300          50.700          52.900
E24  22892603.469 8  22892620.324 8  22892616.563 8  22892617.961 8     -1343.086 8     -1002.712 8     -1028.869 8     -1015.790 8 120301479.710 8  89835530.996 8  92179065.575 8  91007298.885 8        48.700          49.300          49.200          51.500
E25  23575313.250 8  23575319.684 8  23575316.098 8  23575317.355 8       265.531 8       199.659 8       204.867 8       202.263 8 123889126.976 8  92514612.780 8  94928037.854 8  93721324.920 8        50.300          51.300          51.000          53.500
G03  23486493.961 6  23486503.820 4  23486504.063 6  23486505.188 7     -1634.156 6     -1268.936 4     -1268.936 6     -1216.064 7 123422283.822 6  96173297.784 4  96173279.788 6  92166058.337 7        40.900          27.200          41.400          45.200
G14  22271976.148 7  22271982.258 5                                     -2921.820 7     -2272.283 5                                 117039992.904 7  91200046.593 5                                        44.500          30.200
G16  20313655.281 8  20313660.332 7                                       537.359 8       424.792 7                                 106749209.871 8  83181071.230 7                                        49.000          42.400
G21  25461096.164 5  25461103.922 2                                      1050.094 5       825.589 2                                                                                                        33.400          15.600
G22  24067461.273 6  24067466.973 4                                     -2001.871 6     -1557.989 4                                 126475293.663 6  98552235.042 4                                        39.900          25.000
G23  23027265.211 7  23027269.438 4                                      2961.500 7      2311.118 4                                 121009197.608 7  94292830.304 4                                        44.700          29.400
G26  20464838.609 8  20464847.621 7  20464847.418 8  20464847.129 9     -1060.027 8      -821.944 7      -821.944 8      -787.696 9 107543551.030 8  83800168.051 7  83800126.064 8  80308454.399 9        51.400          45.100          50.000          54.900
G27  22516416.719 7  22516425.902 5  22516426.680 7  22516426.305 8      3494.824 7      2726.248 5      2726.249 7      2612.654 8 118324697.871 7  92201145.018 5  92201066.015 7  88359360.063 8        42.100          30.600          44.100          48.300
G31  21781899.891 8  21781904.805 6  21781905.367 7                     -1247.809 8      -970.250 6      -970.250 7                 114464700.040 8  89193319.302 6  89193286.336 7                        48.200          37.300          45.100
G32  24075662.109 5  24075674.578 2  24075674.918 5  24075671.914 4     -3609.805 5     -2810.815 2     -2810.829 5     -2693.845 4 126518412.423 5  98585849.195 2  98585777.33815  94478016.54814        33.600          14.800          30.600          28.800
J01  37021167.672 6  37021174.676 6  37021179.008 7      -495.047 6      -385.296 6      -369.242 7 194547496.536 6 151595444.428 6 145278964.831 7        37.200          38.300          44.100
J02  39521817.375 8  39521823.172 8  39521826.234 8       320.570 8       248.717 8       238.354 8 207688546.571 8 161835226.412 8 155092091.427 8        48.400          49.600          52.200
J03  37542261.703 7  37542267.496 8  37542271.672 8      -303.465 7      -235.536 8      -225.722 8 197285988.127 7 153729317.081 8 147323929.952 8        46.500          49.200          51.600
J07  36817796.156 6  36817802.184 8  36817806.125 8        -2.809 6        -2.090 8        -2.003 8 193478836.545 6 150762704.341 8 144480923.874 8        40.200          49.600          52.600
R03  22287190.688 7  22287189.848 7  22287195.668 6  22287196.465 6     -4198.105 7     -4195.169 7     -3262.905 6     -3262.904 6 119305079.801 7 119305054.808 7  92792814.049 6  92792820.031 6        43.900          42.300          40.400          39.100
R04  20143020.125 8  20143019.355 8  20143023.090 8  20143023.281 7     -1360.664 8     -1347.958 8     -1048.411 8     -1048.412 7 107864978.584 8 107864978.595 8  83894988.754 8  83894987.753 7        52.100          50.300          48.100          47.500
R05  21943965.781 7  21943965.359 7  21943969.137 6  21943968.859 6      2291.766 7      2302.901 7      1791.145 6      1791.145 6 117303260.326 7 117303070.331 7  91235720.373 6  91235741.374 6        46.200          45.700          41.700          41.100
R13  22572735.969 6  22572733.918 6  22572739.789 5  22572740.074 5     -2054.785 6     -2054.936 6     -1598.283 5     -1598.283 5 120537221.614 6 120537205.575 6  93751167.130 5  93751173.151 5        39.500          37.400          34.800          34.400
R14  20516657.469 8  20516656.641 8  20516661.355 7  20516660.438 7      -474.992 8      -473.278 8      -368.106 7      -368.106 7 109365366.240 8 109365369.236 8  85061966.379 7  85061981.368 7        51.900          50.400          46.800          46.700
R15  21955067.930 7  21955067.652 7  21955071.941 7  21955072.180 7      1489.168 7      1491.162 7      1159.792 7      1159.791 7 117321243.008 7 117321268.010 7  91249892.127 7  91249900.127 7        46.000          44.100          43.600          42.900
R17  23326739.516 5  23326737.750 5  23326747.973 4  23326749.512 4      4007.520 5      4006.923 5      3116.629 4      3116.473 4 124826095.563 5 124826138.540 5  97087008.72814  97087026.677 4        34.400          32.900          28.100          26.200
R23  22110429.930 7  22110427.891 7  22110433.664 6  22110434.793 5      -514.945 7      -502.265 7      -390.651 6      -390.651 5 118275989.307 7 118275979.324 7  91992420.333 6  91992469.320 5        46.500          44.500          36.500          35.600
R24  21614358.359 7  21614358.340 7  21614361.121 5  21614361.348 5      2532.477 7      2541.334 7      1976.593 5      1976.591 5 115581817.776 7 115581827.774 7  89896886.650 5  89896921.716 5        43.800          42.100          32.300          31.000
S22  37581289.844 7  37580730.707 7        64.703 7        48.464 7 197447271.718 7 147442479.634 7        42.100          43.500
S27  39746796.219 5  39746790.586 6        -2.480 5                 208870838.48815                        31.000          38.300
S29  37669505.344 6                        -6.938 6                 197954604.485 6                        39.200
S30  37503252.984 7                       -38.027 7                 197080935.481 7                        43.500
S32  37212266.797 6                        -1.148 6                 195551817.541 6                        37.000
S37  37669497.484 6                        -6.875 6                 197954528.003 6                        38.700
S40  37028909.625 7                        46.367 7                 194561764.721 7                        45.000
> 2019 02 14 07 06  0.0000000  0 52
C01  37347225.984 6  37347211.203 7  37347216.680 7        37.129 6        30.251 7        28.788 7 194476785.839 6 158028255.020 7 150381739.570 7        40.500          43.100          44.300
C02  37830507.336 6  37830496.789 7  37830501.609 7       -18.316 6       -14.829 7       -14.111 7 196993356.812 6 160073188.651 7 152327723.656 7        37.400          42.200          43.600
C03  36797477.289 6  36797466.520 7  36797472.488 7        25.102 6        20.447 7        19.458 7 191614103.384 6 155702105.775 7 148168149.563 7        41.700          44.800          44.700
C04  38688299.352 6  38688288.191 6  38688293.852 6        21.645 6        17.672 6        16.817 6 201460159.976 6 163702781.447 6 155781699.503 6        36.900          40.600          39.200
C05  39560399.648 5  39560390.422 6  39560396.727 6       -15.031 5                                 206001406.26415 167392959.80916 159293323.67316        33.600          38.600          37.900
C06  36382123.758 7  36382110.719 7  36382118.375 7      -967.129 7      -783.966 7      -746.032 7 189451260.421 7 153944610.961 7 146495703.102 7        44.800          46.700          45.000
C07  36260544.438 7  36260528.648 7  36260537.523 7      -206.504 7      -167.803 7      -159.684 7 188818188.077 7 153430188.464 7 146006178.490 7        47.300          47.500          47.900
C09  35745541.227 7  35745527.938 7  35745537.566 8      -487.578 7      -394.123 7      -375.052 8 186136403.510 7 151251024.003 7 143932457.970 8        46.600          47.200          48.300
C10  37002730.969 7  37002718.066 7  37002728.055 7       -73.094 7       -59.087 7       -56.228 7 192682959.269 7 156570666.988 7 148994682.538 7        44.700          45.900          45.900
C11  23371295.352 7  23371283.281 7  23371292.094 7      1067.332 7       873.298 7       831.042 7 121700505.693 7  98891597.728 7  94106556.398 7        45.200          46.600          45.800
C16  36604670.523 7  36604660.293 7  36604670.582 7     -1062.633 7      -861.584 7      -819.895 7 190610114.163 7 154886345.770 7 147391822.552 7        46.300          44.900          44.900
C18  36921036.336 7  36921028.094 7                       -31.945 7       -26.213 7                 192257535.713 7 156224970.251 7                        46.900          45.500
C23  22718092.297 8  22718075.543 8                       775.922 8       631.552 8                 118299095.234 8  96127654.979 8                        49.500          49.300
C25  22998410.711 7  22998400.320 8                     -1016.688 7      -825.046 8                 119758786.111 7  97313840.155 8                        47.500          48.000
C28  26072304.297 5  26072297.270 5                      3138.609 5      2549.072 5                 135765318.985 5 110320418.724 5                        32.900          35.000
E02  27347494.852 6  27347501.766 6  27347498.852 6  27347499.293 7      1574.473 6      1177.054 6      1207.760 6      1192.407 7 143712054.277 6 107317478.689 6 110117049.117 6 108717259.499 7        40.200          41.000          41.200          43.500
E03  24857833.234 7  24857839.918 8  24857836.488 8  24857837.715 8       820.867 7       617.947 8       634.067 8       626.007 8 130628809.142 7  97547528.385 8 100092227.126 8  98819872.866 8        47.500          49.500          49.300          51.700
E05  24173383.852 8  24173390.824 8  24173387.016 8  24173388.641 8     -1837.555 8     -1368.114 8     -1403.804 8     -1385.959 8 127031992.797 8  94861553.748 8  97336202.863 8  96098878.411 8        49.900          50.600          50.500          53.100
E09  25421111.703 5  25421123.605 6  25421119.848 6  25421121.410 6     -3045.395 5     -2273.974 6     -2333.298 6     -2303.636 6 133588751.966 5  99757831.034 6 102360194.622 6 101059007.428 6        33.800          39.400          39.200          41.600
E14  17682655.891 8  17682670.832 8  17682666.793 8  17682668.406 8      1713.207 8      1294.286 8      1328.050 8      1311.168 8  92922999.637 8  69390577.383 8  71200765.141 8  70295670.864 8        48.800          51.200          50.500          53.500
E24  22900270.547 8  22900287.242 8  22900283.496 8  22900284.992 8     -1343.180 8     -1002.897 8     -1029.060 8     -1015.979 8 120341770.018 8  89865617.921 8  92209937.381 8  91037778.250 8        48.500          48.900          49.100          51.300
E25  23573805.648 8  23573812.180 8  23573808.445 8  23573809.809 8       262.324 8       197.192 8       202.336 8       199.764 8 123881204.981 8  92508697.018 8  94921967.762 8  93715331.994 8        49.800          50.900          50.800          52.900
G03  23495853.813 7  23495863.777 4  23495863.410 7  23495865.059 7     -1645.012 7     -1277.492 4     -1277.493 7     -1224.263 7 123471467.374 7  96211622.544 4  96211604.568 7  92202786.239 7        42.300          27.600          42.200          45.500
G14  22288686.930 7  22288693.262 4                                     -2932.988 7     -2280.993 4                                 117127811.171 7  91268476.389 4                                        43.500          29.500
G16  20310629.852 8  20310634.902 7                                       522.336 8       412.961 7                                 106733310.868 8  83168682.403 7                                        50.400          42.500
G21  25455118.406 5  25455126.246 2                                      1044.047 5       815.974 2                                 133767585.83515 104234485.18212                                        35.900          17.400
G22  24078901.992 6  24078906.547 3                                     -2006.289 6     -1561.564 3                                 126535414.016 6  98599081.970 3                                        40.200          22.000
G23  23010382.141 7  23010386.516 5                                      2953.000 7      2304.403 5                                 120920478.068 7  94223698.210 5                                        44.300          30.600
G26  20470918.352 8  20470927.383 7  20470927.117 8  20470926.902 9     -1070.188 8      -829.862 7      -829.862 8      -795.284 9 107575500.693 8  83825063.903 7  83825021.909 8  80332312.912 9        51.600          45.000          49.800          54.900
G27  22496486.688 7  22496495.602 5  22496495.918 7  22496495.906 8      3487.301 7      2720.380 5      2720.380 7      2607.030 8 118219963.123 7  92119533.610 5  92119454.620 7  88281149.156 8        42.600          32.600          44.300          48.100
G31  21789037.641 8  21789042.473 6  21789043.164 7                     -1252.902 8      -974.248 6      -974.247 7                 114502208.614 8  89222546.745 6  89222513.743 7                        48.800          36.900          45.000
G32  24096283.148 5                  24096292.699 4  24096291.898 5     -3614.406 5                     -2814.627 4     -2697.553 5 126626771.487 5                  98670212.64814  94558933.62315        33.700                          29.000          31.700
J01  37023994.469 6  37024002.410 6  37024007.258 7      -495.867 6      -386.012 6      -369.927 7 194562358.104 6 151607024.790 6 145290062.652 7        37.700          38.500          44.300
J02  39519978.219 8  39519983.723 8  39519986.863 8       323.664 8       251.065 8       240.603 8 207678880.579 8 161827694.469 8 155084873.329 8        48.300          49.200          51.900
J03  37543999.359 7  37544005.367 8  37544009.441 8      -305.516 7      -237.185 8      -227.302 8 197295119.720 7 153736432.624 8 147330749.006 8        46.200          49.300          51.600
J07  36817811.859 6  36817817.496 8  36817821.363 8        -2.754 6        -2.092 8        -2.004 8 193478917.038 6 150762767.087 8 144480984.006 8        40.100          48.800          52.100
R03  22310732.555 7  22310731.578 6  22310737.711 6  22310738.414 6     -4203.652 7     -4200.736 6     -3267.233 6     -3267.234 6 119431101.890 7 119431076.877 6  92890831.043 6  92890837.051 6        42.200          41.800          39.900          39.200
R04  20150711.711 8  20150711.113 8  20150715.504 7  20150715.297 7     -1385.605 8     -1373.026 8     -1067.909 7     -1067.910 7 107906169.379 8 107906169.383 8  83927026.034 7  83927025.040 7        51.800          50.600          47.500          47.400
R05  21931164.320 7  21931163.238 7  21931169.223 7  21931168.980 6      2269.711 7      2280.891 7      1774.025 7      1774.025 6 117234833.586 7 117234643.601 7  91182499.615 7  91182520.614 6        45.800          44.500          42.700          41.900
R13  22584277.055 6  22584275.355 6  22584279.945 5  22584280.254 5     -2053.922 6     -2054.258 6     -1597.756 5     -1597.755 5 120598849.311 6 120598833.318 6  93799099.801 5  93799105.791 5        39.500          37.800          34.500          34.600
R14  20519339.414 8  20519338.625 8  20519343.281 7  20519342.316 7      -478.227 8      -476.545 8      -370.646 7      -370.647 7 109379662.598 8 109379665.592 8  85073085.771 7  85073100.767 7        52.200          51.000          47.100          46.000
R15  21946716.891 7  21946716.484 7  21946720.375 7  21946721.438 7      1485.570 7      1487.483 7      1156.930 7      1156.931 7 117276618.513 7 117276643.535 7  91215184.216 7  91215192.208 7        46.300          45.000          43.500          43.000
R17  23304268.828 5  23304267.895 5                                      4008.316 5      4008.075 5                                 124705853.272 5 124705896.291 5                                        34.600          33.000
R23  22113386.547 7  22113386.223 7  22113391.938 6  22113393.137 6      -540.227 7      -527.457 7      -410.243 6      -410.245 6 118291813.032 7 118291803.026 7  92004727.630 6  92004776.655 6        46.600          45.000          36.900          36.100
R24  21600199.344 7  21600198.984 6  21600202.664 5  21600201.957 5      2514.906 7      2523.832 6      1962.977 5      1962.979 5 115506102.809 7 115506112.814 6  89837997.345 5  89838032.340 5        43.400          41.600          31.400          31.000
S22  37580913.984 6  37580354.188 7        64.672 6        48.391 7 197445327.859 6 147441027.900 7        41.800          43.600
S27  39746808.391 5  39746802.949 6        -2.227 5                 208870902.70515                        32.000          37.800
S29  37669544.859 6                        -6.734 6                 197954803.495 6                        38.100
S30  37503470.375 7                       -38.074 7                 197082075.091 7                        43.600
S32  37212274.094 6                        -1.152 6                 195551849.869 6                        37.300
S37  37669538.031 6                        -6.711 6                 197954728.283 6                        39.500
S40  37028750.688 7                        46.293 7                 194560373.419 7                        45.000
> 2019 02 14 07 06 30.0000000  0 51
C01  37347011.508 6  37346996.484 7  37347002.313 7        37.434 6        30.260 7        28.796 7 194475668.646 6 158027347.214 7 150380875.695 7        40.800          42.900          44.900
C02  37830612.094 6  37830601.613 7  37830605.883 7       -18.063 6       -14.771 7       -14.056 7 196993902.127 6 160073631.778 7 152328145.335 7        37.600          42.200          43.000
C03  36797332.164 6  36797321.363 7  36797327.574 7        25.133 6        20.452 7        19.462 7 191613348.308 6 155701492.226 7 148167565.703 7        41.700          44.000          45.100
C04  38688174.289 6  38688162.520 6  38688168.363 6        21.844 6        17.698 6        16.842 6 201459506.544 6 163702250.498 6 155781194.254 6        37.100          40.900          38.900
C05  39560485.141 5  39560476.078 6  39560482.309 6       -14.758 5                                 206001851.36715 167393321.32016 159293667.63416        34.300          38.400          38.200
C06  36387707.578 7  36387694.906 7  36387702.563 7      -971.418 7      -787.608 7      -749.498 7 189480338.405 7 153968239.205 7 146518188.043 7        45.000          46.700          44.700
C07  36261731.930 7  36261716.496 7  36261725.570 7      -205.922 7      -167.553 7      -159.445 7 188824374.021 7 153435215.041 7 146010961.852 7        47.400          47.600          47.600
C09  35748364.313 7  35748351.184 7  35748360.891 7      -492.449 7      -398.194 7      -378.926 7 186151104.561 7 151262969.813 7 143943825.757 7        46.700          47.600          47.900
C10  37003152.719 7  37003139.355 7  37003149.320 7       -73.305 7       -59.452 7       -56.575 7 192685154.187 7 156572450.534 7 148996379.776 7        43.700          45.500          45.700
C11  23365187.578 7  23365175.789 7  23365184.367 7      1052.934 7       861.411 7       819.730 7 121668702.914 7  98865755.390 7  94081964.505 7        45.100          46.700          45.900
C16  36610805.281 7  36610795.164 7  36610805.297 7     -1067.035 7      -865.267 7      -823.399 7 190642059.241 7 154912303.777 7 147416524.524 7        46.800          45.000          45.400
C18  36921217.500 7  36921209.094 7                       -31.012 7       -25.552 7                 192258479.074 7 156225736.806 7                        45.700          45.600
C23  22713628.805 8  22713612.078 8                       773.582 8       629.550 8                 118275852.640 8  96108768.473 8                        49.900          49.800
C25  23004274.023 8  23004264.051 8                     -1018.863 8      -827.014 8                 119789318.955 8  97338650.580 8                        48.100          48.400
C28  26054211.055 5  26054205.520 5                      3142.152 5      2551.780 5                 135671108.849 5 110243865.332 5                        32.300          35.900
E02  27338514.305 6  27338522.086 7  27338517.676 7  27338519.168 7      1571.551 6      1174.698 7      1205.341 7      1190.020 7 143664862.020 6 107282237.747 7 110080888.875 7 108681558.910 7        40.900          42.200          42.000          44.800
E03  24853184.180 7  24853190.555 8  24853187.305 8  24853188.496 8       807.859 7       608.149 8       624.014 8       616.082 8 130604377.381 7  97529283.910 8 100073506.701 8  98801390.409 8        47.300          48.800          49.000          51.200
E05  24183903.617 8  24183910.527 8  24183906.680 8  24183908.285 8     -1847.871 8     -1376.040 8     -1411.937 8     -1393.989 8 127087273.742 8  94902834.954 8  97378560.983 8  96140698.074 8        50.300          50.700          50.400          52.700
E09  25438497.781 5  25438510.395 6  25438506.500 6  25438508.016 7     -3045.430 5     -2274.192 6     -2333.520 6     -2303.856 7 133680115.937 5  99826056.786 6 102430200.227 6 101128123.111 7        34.900          39.900          39.100          42.200
E14  17672989.047 8  17673004.215 8  17673000.305 8  17673001.504 8      1673.379 8      1264.497 8      1297.484 8      1280.990 8  92872199.849 8  69352642.484 8  71161840.631 8  70257241.162 8        48.800          51.000          50.500          52.900
E24  22907938.742 8  22907955.328 8  22907951.813 8  22907953.246 8     -1343.289 8     -1003.060 8     -1029.227 8     -1016.144 8 120382066.884 8  89895709.719 8  92240814.194 8  91068262.564 8        48.800          49.000          49.200          51.500
E25  23572316.820 8  23572323.254 8  23572319.602 8  23572320.926 8       259.270 8       194.755 8       199.836 8       197.296 8 123873380.902 8  92502854.359 8  94915972.686 8  93709413.123 8        49.900          51.600          51.200          53.800
G03  23505274.695 7  23505285.191 4  23505284.723 7  23505285.715 7     -1655.660 7     -1285.969 4     -1285.968 7     -1232.385 7 123520977.199 7  96250201.607 4  96250183.611 7  92239757.803 7        42.600          28.600          42.400          44.700
G14  22305461.008 7  22305467.551 4                                     -2943.898 7     -2289.645 4                                 117215962.545 7  91337165.729 4                                        42.800          29.100
G16  20307690.711 8  20307695.621 7                                       507.383 8       401.166 7                                 106717865.965 8  83156647.427 7                                        51.000          42.100
G21  25449175.930 5  25449182.918 2                                      1037.918 5       811.094 2                                 133736358.541 5 104210152.366 2                                        33.900          13.900
G22  24090368.047 6  24090372.320 3                                     -2010.699 6     -1565.059 3                                 126595668.876 6  98646033.753 3                                        39.200          21.100
G23  22993549.234 7  22993552.809 4                                      2944.242 7      2297.628 4                                 120832019.361 7  94154769.376 4                                        43.600          29.900
G26  20477056.047 8  20477064.617 7  20477064.520 8  20477064.199 9     -1080.000 8      -837.720 7      -837.720 8      -802.815 9 107607752.916 8  83850195.512 7  83850153.518 8  80356397.374 9        51.700          45.100          49.900          54.700
G27  22476600.070 7  22476609.031 5  22476609.125 7  22476609.117 8      3479.668 7      2714.440 5      2714.440 7      2601.338 8 118115457.051 7  92038100.400 5  92038021.407 7  88203109.008 8        42.800          32.400          44.400          48.300
G31  21796204.711 8  21796210.188 6  21796210.188 7                     -1257.887 8      -978.249 6      -978.249 7                 114539871.220 8  89251894.213 6  89251861.219 7                        48.700          37.000          45.000
G32  24116930.039 5                  24116940.688 5  24116938.656 5     -3618.727 5                     -2818.425 5     -2700.712 5 126735270.159 5                  98754756.70915  94639954.995 5        33.800                          30.100          33.500
J01  37026828.219 6  37026835.902 6  37026840.426 7      -496.727 6      -386.706 6      -370.593 7 194577246.383 6 151618625.970 6 145301180.439 7        37.300          38.900          44.100
J02  39518121.078 8  39518127.195 8  39518130.262 8       326.836 8       253.421 8       242.862 8 207669123.883 8 161820091.842 8 155077587.471 8        48.500          49.900          52.000
J03  37545748.750 7  37545754.867 8  37545759.047 8      -307.488 7      -238.820 8      -228.870 8 197304314.290 7 153743597.224 8 147337615.093 8        46.300          48.900          51.700
J07  36817827.078 6  36817832.617 8  36817836.574 8        -2.598 6        -2.079 8        -1.993 8 193478997.096 6 150762829.466 8 144481043.792 8        40.200          49.300          52.200
R03  22334304.617 7  22334304.496 6  22334311.172 6  22334309.730 6     -4208.727 7     -4206.146 6     -3271.440 6     -3271.440 6 119557286.249 7 119557261.265 6  92988974.248 6  92988980.263 6        42.700          41.000          38.700          38.600
R04  20158543.711 8  20158542.820 8  20158546.980 7  20158546.945 7     -1410.301 8     -1397.980 8     -1087.317 7     -1087.316 7 107948108.775 8 107948108.795 8  83959645.534 7  83959644.533 7        51.200          50.300          47.600          47.200
R05  21918487.680 7  21918487.496 7  21918491.672 7  21918492.262 6      2247.727 7      2258.800 7      1756.845 7      1756.844 6 117167069.595 7 117166879.594 7  91129794.267 7  91129815.281 6        46.900          45.300          43.000          41.300
R13  22595814.297 6  22595812.938 6  22595818.121 5  22595817.887 5     -2053.137 6     -2053.554 6     -1597.207 5     -1597.207 5 120660455.911 6 120660439.931 6  93847016.015 5  93847022.013 5        40.700          39.400          34.900          34.700
R14  20522038.828 8  20522038.172 8  20522043.414 7  20522042.770 7      -481.387 8      -479.778 8      -373.161 7      -373.161 7 109394055.951 8 109394058.937 8  85084280.589 7  85084295.592 7        52.000          50.600          47.000          46.100
R15  21938384.758 7  21938384.809 7  21938390.262 7  21938390.758 7      1482.031 7      1483.850 7      1154.104 7      1154.103 7 117232103.046 7 117232128.042 7  91180561.089 7  91180569.117 7        45.200          44.600          43.200          42.700
R17  23281791.266 5  23281790.152 5                                      4009.730 5      4009.112 5                                 124585579.920 5 124585622.927 5                                        34.200          32.700
R23  22116487.188 7  22116485.766 7  22116490.715 6  22116492.281 6      -565.125 7      -552.628 7      -429.821 6      -429.821 6 118308391.845 7 118308381.863 7  92017622.261 6  92017671.271 6        47.500          45.700          37.500          36.300
R24  21586138.320 7  21586137.953 6  21586142.168 5  21586141.762 5      2497.441 7      2506.192 6      1949.261 5      1949.258 5 115430917.046 7 115430927.056 6  89779519.519 5  89779554.586 5        42.200          40.900          32.900          31.300
S22  37580536.781 6  37579977.785 7        64.824 6        48.321 7 197443384.439 6 147439578.269 7        41.800          43.600
S29  37669580.266 6                        -6.695 6                 197955003.357 6                        38.300
S30  37503691.625 7                       -38.074 7                 197083217.807 7                        43.600
S32  37212278.938 6                         -.988 6                 195551880.535 6                        37.300
S37  37669576.344 6                        -6.891 6                 197954927.456 6                        38.800
S40  37028593.641 7                        46.840 7                 194558972.540 7                        44.900
> 2019 02 14 07 07  0.0000000  0 52
C01  37346796.695 6  37346782.000 7  37346787.699 7        37.238 6        30.265 7        28.800 7 194474551.283 6 158026439.275 7 150380011.685 7        40.700          43.300          45.000
C02  37830716.133 6  37830705.824 7  37830710.238 7       -18.180 6       -14.711 7       -13.999 7 196994445.226 6 160074073.104 7 152328565.309 7        37.700          42.000          43.200
C03  36797187.484 6  36797176.367 7  36797182.566 7        25.125 6        20.460 7        19.470 7 191612592.936 6 155700878.433 7 148166981.612 7        41.800          44.600          44.600
C04  38688047.977 6  38688036.965 6  38688042.406 6        21.809 6        17.725 6        16.867 6 201458852.143 6 163701718.758 6 155780688.248 6        37.000          40.900          39.000
C05  39560570.781 5  39560561.375 6  39560567.688 6       -14.938 5                                 206002294.78515 167393682.63616 159294011.53216        34.200          38.300          36.900
C06  36393317.555 7  36393304.738 7  36393312.785 7      -975.891 7      -791.240 7      -752.954 7 189509550.477 7 153991976.401 7 146540776.672 7        43.900          46.900          45.600
C07  36262918.430 7  36262902.617 7  36262911.566 7      -205.730 7      -167.292 7      -159.197 7 188830550.310 7 153440233.788 7 146015737.752 7        47.700          47.600          47.900
C09  35751216.266 7  35751203.359 7  35751213.008 8      -497.590 7      -402.265 7      -382.800 8 186165955.910 7 151275037.749 7 143955309.760 8        46.500          47.600          48.700
C10  37003576.500 7  37003563.242 7  37003573.418 7       -73.898 7       -59.801 7       -56.907 7 192687362.005 7 156574244.569 7 148998087.000 7        45.600          45.500          45.800
C11  23359164.398 7  23359152.922 7  23359161.672 7      1038.090 7       849.486 7       808.383 7 121637340.384 7  98840270.805 7  94057713.028 7        44.400          47.000          46.000
C16  36616965.781 7  36616955.754 7  36616966.023 7     -1071.539 7      -868.942 7      -826.896 7 190674140.021 7 154938372.030 7 147441331.405 7        47.500          45.100          45.400
C18  36921393.867 7  36921385.523 7                       -30.207 7       -24.879 7                 192259397.570 7 156226483.165 7                        47.000          45.600
C23  22709179.195 8  22709162.793 8                       771.082 8       627.553 8                 118252683.788 8  96089941.882 8                        49.600          49.800
C25  23010151.547 8  23010141.711 7                     -1021.398 8      -828.989 7                 119819924.689 8  97363520.241 7                        48.000          47.900
C28  26036099.227 5  26036094.168 5                      3144.898 5      2554.488 5                 135576800.67315 110167232.31115                        31.800          35.800
E02  27329551.695 6  27329559.434 6  27329555.098 6  27329556.785 7      1568.328 6      1172.357 6      1202.939 6      1187.648 7 143617763.825 6 107247067.048 6 110044800.694 6 108645929.474 7        40.800          41.400          41.800          44.400
E03  24848610.242 8  24848616.234 8  24848612.371 8  24848614.227 8       794.676 8       598.336 8       613.945 8       606.140 8 130580339.902 8  97511333.839 8 100055088.350 8  98783206.203 8        48.300          49.600          48.500          51.900
E05  24194483.648 8  24194490.723 8  24194486.746 8  24194488.242 8     -1858.539 8     -1383.929 8     -1420.032 8     -1401.980 8 127142871.617 8  94944352.826 8  97421161.937 8  96182757.485 8        49.300          51.300          50.300          53.900
E09  25455884.844 5  25455898.020 6  25455894.270 6  25455895.965 7     -3045.992 5     -2274.364 6     -2333.697 6     -2304.031 7 133771486.911 5  99894287.709 6 102500211.148 6 101197244.027 7        34.700          39.600          38.800          42.100
E14  17663550.977 8  17663565.285 8  17663562.336 8  17663563.211 8      1633.199 8      1234.589 8      1266.795 8      1250.692 8  92822601.576 8  69315604.820 8  71123836.769 8  70219720.404 8        49.400          50.500          50.700          52.700
E24  22915608.188 8  22915624.773 8  22915621.219 8  22915622.613 8     -1343.449 8     -1003.208 8     -1029.378 8     -1016.293 8 120422369.653 8  89925805.949 8  92271695.534 8  91098751.350 8        49.100          48.900          48.900          51.900
E25  23570846.695 8  23570852.754 8  23570849.270 8  23570850.500 8       256.000 8       192.340 8       197.357 8       194.848 8 123865653.846 8  92497084.172 8  94910051.970 8  93703567.675 8        50.000          50.600          50.700          53.500
G03  23514757.836 7  23514767.723 4  23514768.215 7  23514769.000 7     -1666.445 7     -1294.369 4     -1294.370 7     -1240.437 7 123570810.445 7  96289032.686 4  96289014.716 7  92276970.897 7        42.700          29.000          42.000          45.200
G14  22322298.617 7  22322304.836 4                                     -2954.938 7     -2298.245 4                                 117304445.008 7  91406113.069 4                                        42.300          28.400
G16  20304837.734 8  20304842.797 7                                       492.137 8       389.394 7                                 106702874.279 8  83144965.598 7                                        49.900          42.100
G21  25443269.727 5  25443276.906 2                                      1031.586 5       806.162 2                                 133705321.022 5 104185967.500 2                                        32.400          16.300
G22  24101859.547 6  24101863.660 3                                     -2015.012 6     -1568.479 3                                 126656055.433 6  98693088.119 3                                        39.500          21.300
G23  22976766.219 7  22976769.594 5                                      2935.387 7      2290.790 5                                 120743823.941 7  94086045.688 5                                        43.400          30.100
G26  20483250.477 8  20483259.277 7  20483259.082 8  20483258.617 9     -1090.098 8      -845.530 7      -845.530 8      -810.300 9 107640305.830 8  83875561.425 7  83875519.416 8  80380706.374 9        51.500          45.000          50.100          54.700
G27  22456756.758 7  22456765.926 5  22456766.262 7  22456766.480 8      3471.840 7      2708.422 5      2708.422 7      2595.571 8 118011182.655 7  91956847.732 5  91956768.745 7  88125241.891 8        43.700          32.200          45.000          48.500
G31  21803400.773 8  21803406.629 6  21803406.770 7                     -1263.141 8      -982.253 6      -982.252 7                 114577687.962 8  89281361.797 6  89281328.789 7                        48.600          36.600          45.500
G32  24137603.625 5                  24137612.953 5  24137613.613 5     -3623.574 5                     -2821.697 5     -2704.122 5 126843905.99015                  98839407.619 5  94721078.657 5        34.600                          30.800          35.200
J01  37029667.453 6  37029673.887 6  37029678.832 7      -497.648 6      -387.387 6      -371.246 7 194592160.858 6 151630247.584 6 145312317.813 7        37.600          38.700          44.200
J02  39516247.188 7  39516252.949 8  39516256.371 8       329.785 7       255.777 8       245.120 8 207659276.460 7 161812418.533 8 155070233.882 8        47.600          49.800          52.100
J03  37547510.781 7  37547516.543 8  37547520.547 8      -309.684 7      -240.453 8      -230.434 8 197313571.693 7 153750810.800 8 147344528.100 8        46.300          49.100          51.600
J07  36817841.672 6  36817848.000 8  36817851.707 8        -2.531 6        -2.066 8        -1.980 8 193479076.611 6 150762891.456 8 144481103.196 8        40.200          49.000          52.100
R03  22357906.898 7  22357906.434 6  22357912.164 6  22357911.980 6     -4214.047 7     -4211.399 6     -3275.526 6     -3275.526 6 119683628.248 7 119683603.254 6  93087240.026 6  93087246.039 6        42.500          41.800          38.900          38.900
R04  20166514.953 8  20166513.953 8  20166518.570 8  20166518.023 7     -1435.320 8     -1422.867 8     -1106.675 8     -1106.675 7 107990794.802 8 107990794.814 8  83992845.772 8  83992844.771 7        51.200          49.800          48.500          47.200
R05  21905936.469 7  21905935.059 7  21905939.316 7  21905940.055 7      2225.504 7      2236.618 7      1739.591 7      1739.592 7 117099971.051 7 117099781.064 7  91077606.526 7  91077627.516 7        46.000          44.500          42.600          43.300
R13  22607347.727 6  22607345.414 6  22607353.102 5  22607350.895 5     -2052.438 6     -2052.867 6     -1596.674 5     -1596.674 5 120722041.944 6 120722025.955 6  93894916.239 5  93894922.232 5        39.500          37.600          34.200          33.800
R14  20524757.320 8  20524756.211 8  20524761.379 7  20524760.785 7      -484.633 8      -482.990 8      -375.659 7      -375.659 7 109408545.650 8 109408548.644 8  85095550.362 7  85095565.364 7        51.400          51.200          47.100          46.300
R15  21930075.969 7  21930075.699 7  21930080.375 6  21930079.723 6      1478.410 7      1480.243 7      1151.299 6      1151.299 6 117187695.739 7 117187720.755 7  91146022.125 6  91146030.135 6        46.200          44.900          41.300          41.500
R17  23259309.422 5  23259308.410 5                                      4010.160 5      4009.999 5                                 124465279.938 5 124465322.946 5                                        34.000          32.400
R23  22119726.344 7  22119725.508 7  22119731.070 6  22119733.238 6      -590.359 7      -577.797 7      -449.399 6      -449.399 6 118325725.783 7 118325715.788 7  92031104.243 6  92031153.246 6        47.000          45.600          38.400          36.400
R24  21572178.078 7  21572177.941 6  21572181.023 5  21572181.410 5      2479.566 7      2488.417 6      1935.431 5      1935.433 5 115356264.541 7 115356274.562 6  89721456.589 5  89721491.591 5        42.700          41.100          32.400          31.500
S22  37580159.953 6  37579601.867 7        64.871 6        48.257 7 197441446.382 6 147438130.571 7        41.800          43.800
S27  39746835.078 5  39746828.410 6        -2.305 5                 208871032.27815                        31.900          38.700
S29  37669619.828 6                        -6.418 6                 197955203.052 6                        38.600
S30  37503905.156 7                       -38.238 7                 197084363.478 7                        43.600
S32  37212280.406 6                         -.980 6                 195551912.547 6                        37.600
S37  37669614.781 6                        -6.543 6                 197955126.962 6                        39.000
S40  37028433.688 7                        46.328 7                 194557570.631 7                        44.800
> 2019 02 14 07 07 30.0000000  0 52
C01  37346582.008 6  37346567.348 7  37346572.867 7        37.293 6        30.279 7        28.814 7 194473433.394 6 158025530.901 7 150379147.269 7        40.900          43.300          44.800
C02  37830820.008 6  37830809.574 7  37830814.215 7       -17.977 6       -14.633 7       -13.925 7 196994985.442 6 160074512.080 7 152328983.049 7        37.700          42.300          42.500
C03  36797042.406 6  36797031.188 7  36797037.516 7        25.102 6        20.478 7        19.487 7 191611836.889 6 155700264.086 7 148166397.004 7        41.700          44.300          44.600
C04  38687923.289 6  38687910.949 6  38687916.723 6        21.785 6        17.765 6        16.906 6 201458196.235 6 163701185.798 6 155780181.075 6        36.800          40.800          39.500
C05  39560655.547 5  39560645.758 6  39560651.828 6       -14.676 5                                 206002734.80715 167394040.22916 159294351.81616        33.700          38.700          38.200
C06  36398952.883 7  36398940.102 7  36398948.340 7      -980.500 7      -794.857 7      -756.396 7 189538896.083 7 154015822.108 7 146563468.560 7        43.900          46.300          45.700
C07  36264102.086 7  36264086.617 7  36264095.422 7      -205.359 7      -167.005 7      -158.924 7 188836716.016 7 153445243.933 7 146020505.466 7        47.900          47.600          47.500
C09  35754097.289 7  35754084.145 7  35754094.117 8      -502.633 7      -406.328 7      -386.667 8 186180957.267 7 151287227.576 7 143966909.757 8        47.000          47.500          48.300
C10  37004002.727 7  37003989.660 7  37003999.750 7       -74.266 7       -60.130 7       -57.221 7 192689581.985 7 156576048.477 7 148999803.624 7        44.800          45.800          45.200
C11  23353226.703 7  23353214.766 7  23353223.473 7      1023.176 7       837.533 7       797.006 7 121606419.213 7  98815144.827 7  94033802.841 7        45.200          46.000          45.800
C16  36623152.703 7  36623142.621 7  36623152.891 7     -1076.211 7      -872.600 7      -830.378 7 190706355.845 7 154964550.025 7 147466242.730 7        46.800          44.900          45.800
C18  36921565.039 7  36921556.930 7                       -29.375 7       -24.184 7                 192260290.436 7 156227208.697 7                        46.000          45.900
C23  22704743.859 8  22704727.547 8                       768.559 8       625.568 8                 118229588.194 8  96071174.829 8                        50.300          49.200
C25  23016043.133 7  23016033.066 8                     -1023.957 7      -830.958 8                 119850603.110 7  97388448.965 8                        47.600          48.200
C28  26017969.469 5  26017964.953 6                      3148.344 5      2557.051 6                 135482395.868 5 110090520.790 6                        32.000          36.100
E02  27320606.883 6  27320614.973 7  27320609.582 6  27320612.172 7      1565.195 6      1170.037 7      1200.559 6      1185.299 7 143570758.829 6 107211965.926 7 110008783.911 6 108610370.518 7        39.800          43.100          41.900          44.700
E03  24844111.273 8  24844117.457 8  24844114.082 8  24844115.070 8       781.395 8       588.516 8       603.868 8       596.192 8 130556696.922 8  97493678.369 8 100036972.307 8  98765320.442 8        48.200          50.300          49.000          52.100
E05  24205123.531 8  24205130.855 8  24205126.926 8  24205128.188 8     -1869.008 8     -1391.773 8     -1428.080 8     -1409.926 8 127198784.584 8  94986106.012 8  97464004.342 8  96225055.272 8        49.800          51.900          50.800          53.500
E09  25473273.891 6  25473286.563 6  25473283.164 6  25473284.766 6     -3046.078 6     -2274.486 6     -2333.823 6     -2304.155 6 133862862.724 6  99962522.274 6 102570225.834 6 101266368.665 6        36.100          39.700          38.300          41.600
E14  17654342.078 8  17654356.344 8  17654353.395 8  17654354.418 8      1592.836 8      1204.577 8      1236.000 8      1220.289 8  92774208.996 8  69279467.514 8  71086756.761 8  70183111.739 8        48.900          51.200          50.300          52.900
E24  22923278.531 8  22923294.965 8  22923291.648 8  22923292.957 8     -1343.734 8     -1003.332 8     -1029.506 8     -1016.419 8 120462677.455 8  89955905.908 8  92302580.707 8  91129243.910 8        48.800          49.100          48.600          51.700
E25  23569394.391 8  23569400.648 8  23569396.602 8  23569398.344 8       252.695 8       189.956 8       194.911 8       192.433 8 123858022.593 8  92491385.506 8  94904204.648 8  93697794.679 8        50.100          51.400          50.500          53.800
G03  23524302.344 7  23524311.691 4  23524312.570 7  23524313.801 7     -1677.227 7     -1302.690 4     -1302.689 7     -1248.411 7 123620964.073 7  96328113.385 4  96328095.377 7  92314423.239 7        43.200          29.600          42.000          45.700
G14  22339198.930 6  22339204.934 4                                     -2965.883 6     -2306.775 4                                 117393255.879 6  91475316.315 4                                        41.700          28.000
G16  20302070.977 8  20302075.922 7                                       477.078 8       377.665 7                                 106688334.144 8  83133635.636 7                                        50.000          42.000
G21  25437399.391 5  25437407.734 2                                      1025.004 5       801.194 2                                 133674475.025 5 104161931.674 2                                        33.800          16.300
G22  24113374.867 6  24113380.023 3                                     -2019.297 6     -1571.805 3                                 126716570.082 6  98740242.278 3                                        39.400          21.800
G23  22960033.156 7  22960037.313 4                                      2926.578 7      2283.889 4                                 120655894.196 7  94017529.016 4                                        43.200          29.900
G26  20489502.070 8  20489510.977 7  20489510.809 8  20489509.949 9     -1100.109 8      -853.282 7      -853.283 8      -817.729 9 107673157.214 8  83901159.899 7  83901117.904 8  80405238.246 9        51.700          45.000          49.800          54.300
G27  22436959.047 7  22436968.070 5  22436967.805 7  22436968.223 8      3463.910 7      2702.333 5      2702.334 7      2589.735 8 117907142.695 7  91875777.737 5  91875698.724 7  88047549.827 8        43.500          32.700          45.000          48.500
G31  21810626.664 8  21810631.953 6  21810632.137 7                     -1268.371 8      -986.262 6      -986.263 7                 114615659.083 8  89310949.671 6  89310916.683 7                        49.500          37.100          44.900
G32  24158301.047 5  24158312.258 2  24158312.824 5  24158314.344 6     -3628.020 5                     -2825.192 5     -2707.472 6 126952676.301 5  98924251.32512  98924163.385 5  94802302.816 6        34.900          16.900          32.100          36.600
J01  37032509.281 6  37032517.242 6  37032521.957 7      -498.441 6      -388.049 6      -371.881 7 194607100.870 6 151641889.061 6 145323474.232 7        36.700          39.000          44.100
J02  39514356.297 7  39514362.109 8  39514365.258 8       332.781 7       258.143 8       247.387 8 207649337.980 7 161804674.253 8 155062812.285 8        47.400          49.800          52.100
J03  37549283.828 7  37549290.082 8  37549293.824 8      -311.758 7      -242.071 8      -231.984 8 197322891.386 7 153758072.923 8 147351487.633 8        47.400          48.700          51.300
J07  36817856.906 6  36817862.844 8  36817866.703 8        -2.699 6        -2.042 8        -1.957 8 193479155.237 6 150762952.707 8 144481161.897 8        40.000          49.000          52.100
R03  22381537.961 7  22381537.617 6  22381542.219 6  22381542.387 6     -4219.016 7     -4216.500 6     -3279.493 6     -3279.493 6 119810123.224 7 119810098.245 6  93185624.810 6  93185630.818 6        42.900          40.900          39.000          38.600
R04  20174625.711 8  20174624.734 8  20174629.180 7  20174628.805 7     -1460.090 8     -1447.646 8     -1125.946 7     -1125.946 7 108034224.171 8 108034224.190 8  84026624.165 7  84026623.156 7        50.800          50.400          47.400          47.800
R05  21893509.188 7  21893508.434 7  21893512.703 7  21893512.887 7      2203.098 7      2214.369 7      1722.286 7      1722.286 7 117033540.003 7 117033349.999 7  91025937.945 7  91025958.950 7        46.800          45.500          43.600          42.600
R13  22618876.047 6  22618874.805 6  22618881.070 5  22618880.902 5     -2052.082 6     -2052.167 6     -1596.129 5     -1596.130 5 120783606.975 6 120783590.958 6  93942800.102 5  93942806.124 5        40.400          38.200          34.700          34.100
R14  20527493.313 8  20527492.527 8  20527498.184 7  20527496.992 7      -487.832 8      -486.160 8      -378.124 7      -378.124 7 109423130.442 8 109423133.429 8  85106894.077 7  85106909.078 7        51.800          50.100          46.900          45.900
R15  21921785.250 7  21921785.207 7  21921789.617 7  21921790.574 7      1474.926 7      1476.696 7      1148.540 7      1148.541 7 117143394.866 7 117143419.873 7  91111565.928 7  91111573.918 7        45.900          44.500          43.000          42.400
R17  23236823.977 5  23236823.230 5                  23236837.934 4      4011.160 5      4010.775 5                                 124344956.671 5 124344999.686 5                  96712779.22214        35.900          33.700                          29.100
R23  22123108.234 7  22123107.320 7  22123113.086 6  22123115.262 6      -615.637 7      -602.938 7      -468.952 6      -468.952 6 118343813.934 7 118343803.941 7  92045172.808 6  92045221.818 6        47.200          45.400          38.800          36.800
R24  21558319.055 7  21558318.383 6  21558322.578 5  21558321.652 5      2461.410 7      2470.520 6      1921.513 5      1921.513 5 115282148.991 7 115282158.974 6  89663811.212 5  89663846.211 5        43.200          41.300          33.300          31.900
S22  37579786.453 7  37579225.668 7        64.852 7        48.350 7 197439504.151 7 147436680.064 7        42.000          43.400
S27  39746846.813 5  39746841.293 6        -2.453 5                 208871100.18015                        30.700          37.900
S29  37669660.984 6                        -7.043 6                 197955399.964 6                        38.400
S30  37504125.406 7                       -38.391 7                 197085511.672 7                        43.400
S32  37212286.438 6                        -1.016 6                 195551943.741 6                        37.400
S37  37669650.828 6                        -6.676 6                 197955323.653 6                        38.900
S40  37028274.688 7                        46.016 7                 194556194.035 7                        44.800
> 2019 02 14 07 08  0.0000000  0 52
C01  37346367.695 6  37346352.707 7  37346358.250 7        37.176 6        30.262 7        28.798 7 194472316.126 6 158024623.038 7 150378283.343 7        40.700          42.800          44.700
C02  37830924.156 6  37830913.020 6  37830917.477 7       -18.117 6       -14.595 6       -13.889 7 196995524.260 6 160074949.934 6 152329399.708 7        37.500          41.600          43.600
C03  36796897.023 6  36796886.051 7  36796892.250 7        25.035 6        20.460 7        19.470 7 191611081.511 6 155699650.276 7 148165812.901 7        41.800          44.500          44.600
C04  38687796.047 6  38687784.898 6  38687790.695 6        21.816 6        17.768 6        16.908 6 201457540.233 6 163700652.752 6 155779673.832 6        37.100          40.800          39.400
C05  39560738.648 5  39560729.891 6  39560736.059 6       -14.629 5                                 206003173.07815 167394396.35916 159294690.72316        33.700          38.600          37.800
C06  36404614.586 7  36404601.617 7  36404609.598 7      -985.023 7      -798.506 7      -759.869 7 189568376.424 7 154039777.301 7 146586264.626 7        44.600          46.100          45.900
C07  36265284.461 7  36265269.000 7  36265277.934 7      -205.242 7      -166.748 7      -158.680 7 188842872.238 7 153450246.368 7 146025265.856 7        47.800          47.600          47.300
C09  35757007.188 7  35756994.055 7  35757003.855 8      -507.758 7      -410.435 7      -390.576 8 186196110.270 7 151299540.630 7 143978627.024 8        47.000          47.300          48.100
C10  37004431.945 7  37004418.875 7  37004428.699 7       -74.777 7       -60.486 7       -57.559 7 192691815.070 7 156577863.047 7 149001530.399 7        45.300          45.000          45.700
C11  23347373.969 7  23347361.801 7  23347370.777 7      1008.438 7       825.504 7       785.560 7 121575942.132 7  98790379.713 7  94010236.053 7        45.900          46.400          46.000
C16  36629365.352 7  36629355.613 7  36629365.453 7     -1080.813 7      -876.288 7      -833.887 7 190738707.836 7 154990838.669 7 147491259.336 7        46.400          45.000          45.400
C18  36921732.156 7  36921723.789 7                       -28.641 7       -23.519 7                 192261158.743 7 156227914.264 7                        46.200          46.400
C23  22700322.883 8  22700306.234 8                       766.055 8       623.551 8                 118206567.075 8  96052468.298 8                        49.500          49.000
C25  23021948.883 8  23021938.512 8                     -1026.410 8      -832.969 8                 119881355.798 8  97413438.031 8                        48.100          48.200
C28  25999821.727 5  25999817.867 6                      3151.316 5      2559.569 6                 135387898.058 5 110013733.713 6                        32.500          36.200
E02  27311679.750 6  27311688.340 7  27311682.563 6  27311685.301 7      1561.871 6      1167.695 7      1198.158 6      1182.926 7 143523847.859 6 107176935.070 7 109972839.181 6 108574882.736 7        38.500          43.700          41.500          45.600
E03  24839687.305 8  24839694.195 8  24839691.031 8  24839691.414 8       768.148 8       578.644 8       593.739 8       586.192 8 130533450.532 8  97476319.046 8 100019160.144 8  98747734.692 8        48.500          49.800          49.600          52.200
E05  24215823.516 8  24215830.730 8  24215826.770 8  24215828.063 8     -1879.566 8     -1399.616 8     -1436.128 8     -1417.872 8 127255012.674 8  95028094.498 8  97507088.174 8  96267591.442 8        50.300          51.600          50.600          53.500
E09  25490663.766 6  25490676.402 6  25490672.840 6  25490674.371 6     -3046.152 6     -2274.598 6     -2333.937 6     -2304.267 6 133954243.049 6 100030760.206 6 102640243.945 6 101335496.677 6        37.100          39.300          38.900          41.900
E14  17645363.867 8  17645378.590 8  17645374.879 8  17645376.250 8      1552.340 8      1174.414 8      1205.051 8      1189.733 8  92727028.165 8  69244235.090 8  71050605.222 8  70147419.761 8        49.200          50.900          50.100          52.700
E24  22930949.906 8  22930966.211 8  22930963.199 8  22930964.398 8     -1344.004 8     -1003.477 8     -1029.655 8     -1016.566 8 120502991.062 8  89986010.212 8  92333470.351 8  91159740.889 8        48.600          48.800          48.100          51.500
E25  23567960.406 8  23567966.805 8  23567962.836 8  23567964.496 8       249.434 8       187.557 8       192.450 8       190.003 8 123850487.666 8  92485758.791 8  94898431.151 8  93692094.575 8        50.300          51.100          50.500          53.500
G03  23533906.414 7  23533916.191 4  23533916.516 6  23533918.293 7     -1687.770 7     -1310.975 4     -1310.974 6     -1256.351 7 123671436.667 7  96367442.626 4  96367424.599 6  92352113.760 7        43.400          28.300          41.700          45.800
G14  22356161.352 7  22356168.539 4                                     -2976.754 7     -2315.301 4                                 117482395.005 7  91544775.329 4                                        42.400          28.300
G16  20299390.359 8  20299395.262 7                                       462.027 8       365.924 7                                 106674246.035 8  83122657.907 7                                        49.800          42.200
G21  25431566.852 5  25431575.480 2                                      1018.473 5       796.116 2                                 133643824.376 5 104138048.198 2                                        32.500          16.300
G22  24124914.266 6  24124919.813 3                                     -2023.570 6     -1575.101 3                                 126777211.644 6  98787495.320 3                                        38.200          20.600
G23  22943352.281 7  22943355.730 5                                      2917.465 7      2276.886 5                                 120568234.054 7  93949222.429 5                                        43.800          30.200
G26  20495810.320 8  20495819.148 7  20495818.930 8  20495818.172 9     -1110.055 8      -861.023 7      -861.022 8      -825.146 9 107706306.569 8  83926990.576 7  83926948.574 8  80429992.637 9        51.200          45.500          49.900          54.400
G27  22417206.227 7  22417215.281 5  22417215.277 7  22417214.895 8      3455.977 7      2696.129 5      2696.128 7      2583.789 8 117803341.618 7  91794893.877 5  91794814.872 7  87970036.162 8        43.500          32.900          45.300          48.200
G31  21817881.820 8  21817886.887 6  21817887.559 7                     -1273.629 8      -990.319 6      -990.318 7                 114653786.374 8  89340659.242 6  89340626.226 7                        48.800          36.100          44.700
G32  24179025.125 5  24179036.840 2  24179037.668 5  24179040.012 6     -3632.363 5     -2828.659 2     -2828.657 5     -2710.794 6 127061580.148 5  99009111.105 2  99009023.099 5  94883626.643 6        35.200          15.600          34.000          37.700
J01  37035357.688 6  37035365.398 6  37035370.242 7      -499.281 6      -388.735 6      -372.537 7 194622067.249 6 151653551.102 6 145334650.346 7        36.100          39.100          43.800
J02  39512447.984 7  39512453.367 8  39512456.891 8       335.664 7       260.472 8       249.619 8 207639309.807 7 161796860.097 8 155055323.721 8        47.400          49.100          52.100
J03  37551069.734 7  37551075.480 8  37551079.199 8      -313.891 7      -243.722 8      -233.567 8 197332274.692 7 153765384.592 8 147358494.657 8        46.600          48.500          51.200
J07  36817872.016 6  36817877.895 8  36817881.668 8        -2.852 6        -2.052 8        -1.967 8 193479234.248 6 150763014.277 8 144481220.911 8        40.000          48.400          52.100
R03  22405195.523 7  22405195.367 7  22405200.359 6  22405200.852 6     -4224.105 7     -4221.496 7     -3283.380 6     -3283.379 6 119936768.099 7 119936743.107 7  93284126.206 6  93284132.200 6        42.200          42.000          38.600          38.500
R04  20182873.750 8  20182872.676 8  20182878.027 7  20182877.262 7     -1484.813 8     -1472.378 8     -1145.182 7     -1145.183 7 108078395.517 8 108078395.528 8  84060979.633 7  84060978.638 7        50.700          49.900          47.700          47.300
R05  21881207.445 7  21881206.941 7  21881210.332 7  21881211.398 7      2180.660 7      2191.966 7      1704.862 7      1704.862 7 116967781.016 7 116967591.028 7  90974792.085 7  90974813.090 7        47.200          45.900          43.300          42.400
R13  22630402.664 6  22630400.258 6  22630406.984 5  22630406.250 5     -2051.301 6     -2051.527 6     -1595.630 5     -1595.629 5 120845152.749 6 120845136.760 6  93990669.014 5  93990675.007 5        40.000          38.100          34.900          35.100
R14  20530247.383 8  20530246.406 8  20530252.098 7  20530251.070 7      -491.035 8      -489.352 8      -380.607 7      -380.607 7 109437810.999 8 109437813.993 8  85118312.287 7  85118327.289 7        51.400          50.000          46.300          46.200
R15  21913515.289 7  21913515.465 7  21913519.859 7  21913520.469 7      1471.258 7      1473.121 7      1145.760 7      1145.760 7 117099201.235 7 117099226.234 7  91077193.113 7  91077201.119 7        46.100          44.800          43.300          43.200
R17  23214334.953 5  23214334.027 5  23214345.023 5  23214346.484 4      4011.516 5      4011.361 5                      3119.927 4 124224615.824 5 124224658.851 5  96619203.44915  96619181.422 4        34.500          33.400          30.900          29.900
R23  22126630.781 7  22126629.660 7  22126634.770 6  22126636.590 5      -640.723 7      -628.127 7      -488.544 6      -488.543 5 118362657.747 7 118362647.763 7  92059829.136 6  92059878.121 5        45.400          44.100          36.900          35.800
R24  21544560.430 7  21544559.629 6  21544562.758 5  21544563.621 5      2443.258 7      2452.432 6      1907.445 5      1907.446 5 115208576.023 7 115208586.014 6  89606587.871 5  89606622.843 5        42.700          41.600          33.100          32.400
S22  37579409.734 6  37578849.695 7        64.641 6        48.484 7 197437567.621 6 147435225.529 7        41.700          43.100
S27  39746860.219 5  39746853.668 6        -2.520 5                 208871165.95515                        31.200          38.600
S29  37669696.438 6                        -6.641 6                 197955598.661 6                        39.600
S30  37504347.453 7                       -38.617 7                 197086663.810 7                        43.600
S32  37212291.844 6                        -1.043 6                 195551973.956 6                        37.400
S37  37669694.203 6                        -6.902 6                 197955521.841 6                        38.300
S40  37028121.891 7                        45.746 7                 194554802.938 7                        45.000
> 2019 02 14 07 08 30.0000000  0 52
C01  37346153.172 6  37346138.281 7  37346143.949 7        37.121 6        30.244 7        28.781 7 194471199.527 6 158023715.719 7 150377419.919 7        40.600          42.800          44.300
C02  37831026.688 6  37831016.168 7  37831020.770 7       -17.984 6       -14.554 7       -13.850 7 196996061.584 6 160075386.556 7 152329815.212 7        37.500          42.000          43.600
C03  36796752.156 7  36796741.109 7  36796747.258 7        25.070 7        20.442 7        19.453 7 191610326.770 7 155699037.015 7 148165229.302 7        42.100          44.600          44.700
C04  38687670.367 6  38687658.969 6  38687664.605 6        21.793 6        17.770 6        16.910 6 201456884.152 6 163700119.643 6 155779166.520 6        37.100          40.900          38.900
C05  39560823.523 5  39560813.898 6  39560819.914 6       -14.453 5                                                                                        33.700          37.800          37.900
C06  36410301.547 7  36410288.660 7  36410296.688 7      -989.395 7      -802.152 7      -763.338 7 189597991.352 7 154063841.847 7 146609164.762 7        43.700          46.400          45.000
C07  36266464.891 8  36266449.395 8  36266458.352 7      -204.762 8      -166.482 8      -158.426 7 188849018.628 8 153455240.820 8 146030018.636 7        48.500          48.100          47.400
C09  35759946.594 7  35759933.160 7  35759942.988 8      -512.750 7      -414.537 7      -394.479 8 186211414.725 7 151311976.752 7 143990461.395 8        46.600          47.800          48.000
C10  37004863.039 7  37004850.371 7  37004860.043 7       -75.117 7       -60.829 7       -57.886 7 192694060.843 7 156579687.924 7 149003266.979 7        44.900          44.900          45.800
C11  23341606.625 7  23341594.770 7  23341603.621 7       993.555 7       813.435 7       774.075 7 121545910.598 7  98765976.666 7  93987013.809 7        46.400          47.100          46.000
C16  36635604.414 7  36635594.484 7  36635604.402 7     -1085.297 7      -879.972 7      -837.393 7 190771195.828 7 155017237.826 7 147516381.117 7        46.000          45.100          45.700
C18  36921894.117 7  36921885.746 7                       -27.762 7       -22.844 7                 192262002.138 7 156228599.598 7                        47.400          46.300
C23  22695916.313 8  22695899.586 8                       763.527 8       621.533 8                 118183620.483 8  96033822.313 8                        50.200          49.500
C25  23027868.797 7  23027857.957 7                     -1028.875 7      -834.989 7                 119912183.064 7  97438487.706 7                        47.300          47.100
C28  25981656.922 5  25981652.762 6                      3154.230 5      2562.029 6                 135293309.419 5 109936872.837 6                        32.000          37.500
E02  27302770.750 6  27302777.984 7  27302774.152 6  27302776.203 7      1559.000 6      1165.368 7      1195.769 6      1180.569 7 143477030.374 6 107141974.021 7 109936966.101 6 108539465.676 7        38.900          43.200          40.800          45.300
E03  24835338.922 8  24835346.039 8  24835342.352 8  24835343.363 8       754.938 8       568.756 8       583.593 8       576.174 8 130510601.379 8  97459256.370 8 100001652.347 8  98730449.457 8        48.000          49.700          49.100          51.900
E05  24226583.234 8  24226589.891 8  24226586.496 8  24226587.539 8     -1890.059 8     -1407.423 8     -1444.139 8     -1425.781 8 127311554.374 8  95070317.188 8  97550412.334 8  96310364.865 8        50.000          50.700          50.300          52.800
E09  25508053.609 6  25508066.797 6  25508063.625 6  25508064.641 6     -3046.234 6     -2274.668 6     -2334.010 6     -2304.339 6 134045626.200 6 100099000.236 6 102710264.250 6 101404626.842 6        37.700          39.300          38.400          41.300
E14  17636617.133 8  17636632.121 8  17636628.359 8  17636629.645 8      1511.719 8      1144.140 8      1173.987 8      1159.063 8  92681063.589 8  69209910.886 8  71015385.626 8  70112647.860 8        49.100          51.200          50.100          53.100
E24  22938622.422 8  22938638.121 8  22938635.398 8  22938636.832 8     -1344.086 8     -1003.611 8     -1029.792 8     -1016.701 8 120543310.052 8  90016118.532 8  92364364.109 8  91190241.924 8        48.000          48.600          48.500          51.200
E25  23566544.953 8  23566551.016 8  23566547.074 8  23566548.840 8       246.336 8       185.179 8       190.010 8       187.594 8 123843048.318 8  92480203.434 8  94892730.861 8  93686466.748 8        50.400          50.800          50.500          53.300
G03  23543571.922 6  23543580.871 4  23543580.836 6  23543582.867 7     -1698.238 6     -1319.188 4     -1319.189 6     -1264.222 7 123722225.428 6  96407018.272 4  96407000.284 6  92390040.407 7        41.300          26.800          40.200          45.700
G14  22373186.516 7  22373193.250 4                                     -2987.629 7     -2323.769 4                                 117571860.191 7  91614488.409 4                                        42.600          27.700
G16  20296795.281 8  20296800.074 7                                       447.012 8       354.208 7                                 106660608.993 8  83112031.652 7                                        48.700          43.100
G21  25425769.633 5  25425779.086 2                                      1011.621 5       791.038 2                                 133613371.23215 104114318.54912                                        30.500          15.600
G22  24136476.977 6  24136483.117 3                                     -2027.484 6     -1578.330 3                                 126837977.438 6  98834845.226 3                                        36.100          20.400
G23  22926723.141 7  22926726.484 5                                      2908.211 7      2269.819 5                                 120480845.984 7  93881127.850 5                                        44.300          30.100
G26  20502174.688 8  20502183.742 7  20502183.453 8  20502182.449 9     -1119.824 8      -868.715 7      -868.716 8      -832.519 9 107739752.107 8  83953052.029 7  83953010.041 8  80454968.207 9        51.200          45.100          50.100          54.500
G27  22397499.695 7  22397509.133 5  22397508.973 7  22397508.109 8      3447.840 7      2689.841 5      2689.841 7      2577.763 8 117699782.633 7  91714198.657 5  91714119.655 7  87892703.257 8        42.900          33.600          46.300          48.600
G31  21825166.922 8  21825172.559 6  21825172.594 7                     -1278.906 8      -994.394 6      -994.395 7                 114692070.555 8  89370491.055 6  89370458.061 7                        48.900          36.500          45.100
G32  24199774.266 5  24199785.867 2  24199786.957 5  24199790.840 6     -3636.324 5     -2832.064 2     -2832.067 5     -2714.060 6 127170615.132 5  99094073.039 2  99093985.099 5  94965048.453 6        33.800          16.300          34.500          37.900
J01  37038211.094 6  37038218.887 6  37038223.621 7      -500.484 6      -389.411 6      -373.185 7 194637059.753 6 151665233.435 6 145345845.896 7        37.700          40.200          44.100
J02  39510522.281 7  39510527.887 8  39510531.598 8       338.715 7       262.798 8       251.848 8 207629192.079 7 161788976.155 8 155047768.277 8        46.200          49.500          51.900
J03  37552867.375 7  37552872.992 8  37552876.805 8      -316.000 7      -245.373 8      -235.149 8 197341721.522 7 153772745.769 8 147365549.129 8        47.200          49.000          51.100
J07  36817887.250 6  36817892.680 8  36817896.766 8        -2.520 6        -2.063 8        -1.977 8 193479313.639 6 150763076.179 8 144481280.233 8        40.600          49.100          52.100
R03  22428881.438 7  22428880.848 6  22428887.145 6  22428886.414 6     -4228.863 7     -4226.344 6     -3287.149 6     -3287.149 6 120063558.398 7 120063533.416 6  93382740.678 6  93382746.683 6        42.600          41.700          38.300          38.300
R04  20191260.547 8  20191259.695 8  20191263.863 7  20191263.824 7     -1509.363 8     -1497.037 8     -1164.362 7     -1164.361 7 108123306.618 8 108123306.630 8  84095910.480 7  84095909.479 7        51.700          50.500          47.300          47.500
R05  21869032.227 8  21869031.688 7  21869034.871 7  21869035.852 7      2158.117 8      2169.481 7      1687.373 7      1687.373 7 116902696.595 8 116902506.602 7  90924170.899 7  90924191.895 7        48.200          46.200          42.900          42.300
R13  22641924.555 6  22641921.813 6  22641929.027 6  22641929.039 6     -2050.688 6     -2050.881 6     -1595.128 6     -1595.129 6 120906679.189 6 120906663.192 6  94038522.861 6  94038528.869 6        39.100          38.100          36.000          36.200
R14  20533019.273 8  20533018.582 8  20533023.309 7  20533023.152 7      -494.223 8      -492.528 8      -383.078 7      -383.078 7 109452586.852 8 109452589.839 8  85129804.623 7  85129819.618 7        51.200          50.100          47.500          46.200
R15  21905264.547 7  21905264.648 7  21905268.605 7  21905270.230 7      1467.660 7      1469.585 7      1143.009 7      1143.009 7 117055113.687 7 117055138.683 7  91042902.840 7  91042910.845 7        45.900          44.900          43.900          43.000
R17  23191845.516 5  23191841.984 5  23191852.520 5  23191853.477 5      4012.074 5      4011.812 5      3120.277 5      3120.276 5 124104261.505 5 124104304.507 5  96525595.143 5  96525573.154 5        34.300          33.200          30.700          30.800
R23  22130294.305 7  22130293.125 7  22130300.230 6  22130301.238 6      -665.891 7      -653.317 7      -508.135 6      -508.135 6 118382257.246 7 118382247.261 7  92075073.182 6  92075122.169 6        44.700          43.000          37.900          36.200
R24  21530903.867 7  21530903.051 6  21530906.859 5  21530906.820 5      2424.941 7      2434.211 6      1893.276 5      1893.275 5 115135549.650 7 115135559.669 6  89549789.600 5  89549824.602 5        43.700          41.700          33.000          32.600
S22  37579032.688 6  37578474.336 7        64.574 6        48.242 7 197435632.837 6 147433778.255 7        41.400          43.700
S27  39746870.469 5  39746867.070 6        -2.563 5                 208871240.16815                        31.600          38.000
S29  37669736.641 6                        -6.945 6                 197955797.314 6                        38.300
S30  37504560.531 7                       -38.637 7                 197087819.807 7                        43.800
S32  37212302.781 6                        -1.086 6                 195552006.231 6                        37.100
S37  37669727.047 6                        -6.887 6                 197955719.608 6                        39.400
S40  37027968.031 7                        46.582 7                 194553401.800 7                        44.900
> 2019 02 14 07 09  0.0000000  0 52
C01  37345938.484 6  37345923.992 7  37345929.785 7        37.176 6        30.222 7        28.759 7 194470083.755 6 158022809.070 7 150376557.151 7        40.800          43.300          44.100
C02  37831129.430 6  37831119.000 7  37831123.563 7       -17.789 6       -14.516 7       -13.814 7 196996597.511 6 160075822.036 7 152330229.632 7        37.500          42.300          43.300
C03  36796607.383 6  36796596.281 7  36796602.602 7        25.070 6        20.425 7        19.436 7 191609572.705 6 155698424.272 7 148164646.221 7        41.900          44.700          44.600
C04  38687543.984 6  38687532.938 6  38687538.492 6        22.004 6        17.774 6        16.914 6 201456227.940 6 163699586.431 6 155778659.107 6        37.000          40.600          39.600
C05  39560906.531 5  39560897.422 6  39560903.316 6       -14.480 5                                 206004044.86815 167395103.96416 159295364.09916        33.700          37.900          37.000
C06  36416014.469 7  36416001.844 7  36416009.820 7      -993.824 7      -805.791 7      -766.801 7 189627740.641 7 154088015.585 7 146632168.795 7        44.500          46.100          45.600
C07  36267643.219 8  36267627.895 8  36267636.535 7      -204.383 8      -166.204 8      -158.162 7 188855154.764 8 153460226.929 8 146034763.491 7        48.100          48.300          47.500
C09  35762914.211 7  35762901.445 7  35762911.094 8      -517.746 7      -418.647 7      -398.389 8 186226870.888 7 151324536.150 7 144002413.078 8        46.300          46.900          48.300
C10  37005296.414 7  37005283.992 7  37005293.691 7       -75.480 7       -61.160 7       -58.201 7 192696318.830 7 156581522.731 7 149005013.010 7        45.000          46.200          45.500
C11  23335925.906 7  23335912.840 7  23335922.621 7       978.660 7       801.326 7       762.552 7 121516326.123 7  98741936.876 7  93964137.243 7        46.000          46.900          46.300
C16  36641869.023 7  36641859.301 7  36641869.617 7     -1089.785 7      -883.652 7      -840.894 7 190803819.677 7 155043747.373 7 147541607.946 7        46.800          44.700          45.500
C18  36922050.945 7  36922042.930 7                       -26.863 7       -22.162 7                 192262820.340 7 156229264.457 7                        46.800          46.300
C23  22691523.953 8  22691507.711 8                       761.219 8       619.517 8                 118160748.313 8  96015236.805 8                        49.100          49.500
C25  23033803.727 8  23033792.637 7                     -1031.348 8      -837.017 7                 119943085.191 8  97463598.207 7                        48.800          47.500
C28  25963476.445 5  25963470.797 6                      3157.500 5      2564.434 6                 135198631.965 5 109859939.823 6                        33.500          37.800
E02  27293879.922 6  27293887.008 7  27293883.395 6  27293884.797 7      1555.801 6      1163.052 7      1193.392 6      1178.223 7 143430305.956 6 107107082.446 7 109901164.335 6 108504118.990 7        39.900          43.300          41.300          45.500
E03  24831066.867 7  24831073.250 8  24831069.699 8  24831071.055 8       741.699 7       558.850 8       573.429 8       566.139 8 130488150.196 7  97442490.870 8  99984449.486 8  98713465.285 8        47.800          49.100          48.800          51.400
E05  24237402.086 8  24237408.777 8  24237405.520 8  24237406.504 8     -1900.332 8     -1415.196 8     -1452.115 8     -1433.655 8 127368408.373 8  95112773.075 8  97593975.772 8  96353374.528 8        50.500          51.100          51.000          53.300
E09  25525443.984 6  25525457.109 6  25525453.301 6  25525454.973 6     -3046.199 6     -2274.697 6     -2334.039 6     -2304.368 6 134137010.533 6 100167241.145 6 102780285.422 6 101473757.895 6        37.500          39.000          38.000          41.100
E14  17628102.664 8  17628117.676 8  17628113.461 8  17628115.168 8      1471.051 8      1113.752 8      1142.806 8      1128.279 8  92636319.810 8  69176498.333 8  70981101.433 8  70078799.483 8        49.400          51.500          50.100          53.200
E24  22946295.930 8  22946311.695 8  22946308.813 8  22946310.207 8     -1344.176 8     -1003.734 8     -1029.917 8     -1016.825 8 120583633.945 8  90046230.538 8  92395261.630 8  91220746.683 8        49.300          48.600          48.600          51.600
E25  23565147.180 8  23565153.453 8  23565149.398 8  23565151.223 8       243.273 8       182.819 8       187.588 8       185.203 8 123835703.771 8  92474718.872 8  94887103.235 8  93680910.654 8        50.300          51.500          50.900          53.300
G03  23553296.008 7  23553305.586 4  23553305.723 6  23553306.938 7     -1708.520 7     -1327.332 4     -1327.332 6     -1272.026 7 123773327.766 7  96446838.228 4  96446820.236 6  92428201.183 7        42.000          27.500          40.700          45.100
G14  22390272.773 7  22390279.527 4                                     -2998.453 7     -2332.190 4                                 117661649.583 7  91684454.125 4                                        42.100          28.600
G16  20294286.102 8  20294290.922 7                                       432.090 8       342.517 7                                 106647422.058 8  83101756.134 7                                        48.800          42.600
G21  25420013.633 5  25420022.230 2                                      1005.109 5       785.959 2                                                                                                        32.400          16.300
G22  24148064.211 6  24148068.965 3                                     -2031.480 6     -1581.484 3                                 126898864.682 6  98882289.761 3                                        36.500          20.600
G23  22910145.945 7  22910149.941 5                                      2899.160 7      2262.684 5                                 120393732.625 7  93813247.340 5                                        44.500          30.100
G26  20508595.039 8  20508604.109 7  20508603.633 8  20508603.305 9     -1129.570 8      -876.363 7      -876.362 8      -839.847 9 107773492.063 8  83979342.906 7  83979300.904 8  80480163.620 9        51.000          45.000          50.000          54.500
G27  22377839.813 7  22377848.906 5  22377848.652 7  22377848.488 8      3439.641 7      2683.471 5      2683.471 7      2571.659 8 117596468.882 7  91633694.532 5  91633615.529 7  87815553.494 8        43.800          33.000          45.600          48.600
G31  21832482.367 8  21832487.727 6  21832487.781 7                     -1284.051 8      -998.468 6      -998.467 7                 114730511.576 8  89400445.086 6  89400412.085 7                        49.000          37.300          45.200
G32  24220548.078 5  24220559.648 2  24220559.582 5  24220564.195 6     -3641.035 5     -2835.419 2     -2835.418 5     -2717.272 6 127279779.253 5  99179135.600 2  99179047.652 5  95046566.626 6        32.600          14.800          34.700          38.200
J01  37041068.641 6  37041076.484 6  37041081.668 7      -501.082 6      -390.080 6      -373.826 7 194652077.851 6 151676935.822 6 145357060.662 7        37.100          40.000          43.900
J02  39508580.188 7  39508585.859 8  39508589.207 8       341.762 7       265.122 8       254.075 8 207618984.880 7 161781022.495 8 155040146.022 8        47.800          49.500          52.100
J03  37554677.031 7  37554682.906 8  37554686.582 8      -318.141 7      -247.021 8      -236.728 8 197351231.802 7 153780156.385 8 147372650.974 8        46.600          49.500          51.200
J07  36817902.266 6  36817908.047 8  36817911.980 8        -2.543 6        -2.075 8        -1.989 8 193479393.531 6 150763138.430 8 144481339.891 8        40.200          49.400          52.100
R03  22452593.633 7  22452593.348 6  22452599.113 6  22452597.836 6     -4233.391 7     -4231.052 6     -3290.812 6     -3290.812 6 120190489.998 7 120190464.989 6  93481465.027 6  93481471.039 6        43.400          41.600          38.900          38.100
R04  20199785.266 8  20199784.234 8  20199787.980 8  20199788.949 7     -1533.906 8     -1521.605 8     -1183.469 8     -1183.470 7 108168954.774 8 108168954.785 8  84131414.566 8  84131413.572 7        51.300          50.000          48.800          47.300
R05  21856982.453 7  21856981.773 7  21856987.270 7  21856987.004 7      2135.559 7      2146.899 7      1669.810 7      1669.811 7 116838289.621 7 116838099.634 7  90874076.595 7  90874097.579 7        46.600          45.900          43.200          42.600
R13  22653441.609 6  22653440.438 6  22653447.133 6  22653446.859 5     -2049.918 6     -2050.271 6     -1594.654 6     -1594.654 5 120968187.303 6 120968171.333 6  94086362.474 6  94086368.478 5        38.600          36.800          36.300          35.200
R14  20535809.070 8  20535808.195 8  20535813.176 7  20535812.910 7      -497.250 8      -495.679 8      -385.528 7      -385.528 7 109467457.209 8 109467460.211 8  85141370.458 7  85141385.453 7        52.100          50.100          47.800          46.900
R15  21897034.641 7  21897034.203 7  21897037.953 7  21897039.008 7      1464.324 7      1466.076 7      1140.281 7      1140.281 7 117011131.410 7 117011156.415 7  91008694.423 7  91008702.416 7        46.200          44.900          43.400          42.300
R17  23169351.750 5  23169348.527 5  23169357.973 5  23169359.672 5      4012.406 5      4012.117 5      3120.513 5      3120.515 5 123983897.979 5 123983941.000 5  96431979.745 5  96431957.704 5        32.900          32.100          32.800          31.900
R23  22134099.992 7  22134097.840 7  22134105.402 6  22134106.148 6      -691.063 7      -678.489 7      -527.714 6      -527.714 6 118402611.930 7 118402601.941 7  92090904.597 6  92090953.591 6        44.500          42.500          37.500          36.700
R24  21517349.828 7  21517350.434 6  21517353.559 5  21517354.285 5      2406.605 7      2415.832 6      1878.979 5      1878.978 5 115063074.720 7 115063084.702 6  89493420.238 5  89493455.260 5        43.900          41.700          33.600          32.900
S22  37578658.469 6  37578099.152 7        64.410 6        48.166 7 197433696.811 6 147432333.278 7        41.700          43.900
S27  39746885.391 5  39746880.289 6        -2.234 5                 208871312.37415                        32.200          38.200
S29  37669776.406 6                        -6.207 6                 197955997.739 6                        39.000
S30  37504784.109 7                       -38.750 7                 197088979.737 7                        43.600
S32  37212308.391 6                        -1.258 6                 195552038.670 6                        37.400
S37  37669768.297 6                        -6.465 6                 197955918.116 6                        39.200
S40  37027810.750 7                        45.977 7                 194552027.911 7                        45.000
> 2019 02 14 07 09 30.0000000  0 52
C01  37345724.609 6  37345709.840 7  37345715.293 7        37.223 6        30.212 7        28.750 7 194468968.355 6 158021902.720 7 150375694.651 7        40.800          43.600          44.000
C02  37831232.328 6  37831221.820 7  37831226.203 7       -17.711 6       -14.472 7       -13.770 7 196997131.742 6 160076256.183 7 152330642.744 7        37.500          42.500          43.400
C03  36796462.594 6  36796451.609 7  36796457.652 7        25.262 6        20.415 7        19.427 7 191608818.978 6 155697811.822 7 148164063.408 7        41.800          44.300          44.800
C04  38687418.602 6  38687406.820 6  38687412.301 6        22.098 6        17.785 6        16.924 6 201455571.312 6 163699052.873 6 155778151.378 6        36.900          40.400          39.600
C05  39560989.531 5  39560980.086 6  39560986.566 6       -14.195 5                                 206004477.13815 167395455.23316 159295698.37116        33.400          38.400          36.900
C06  36421753.266 7  36421740.500 7  36421748.777 7      -998.277 7      -809.418 7      -770.252 7 189657623.815 7 154112298.111 7 146655276.364 7        44.100          45.900          45.800
C07  36268819.336 7  36268804.207 8  36268812.867 7      -203.902 7      -165.909 8      -157.881 7 188861280.020 7 153465204.201 8 146039499.923 7        47.900          48.100          47.600
C09  35765911.500 7  35765898.719 7  35765908.313 8      -522.719 7      -422.750 7      -402.295 8 186242478.559 7 151337218.663 7 144014481.921 8        46.200          47.700          48.000
C10  37005732.422 7  37005719.656 7  37005729.660 7       -75.730 7       -61.474 7       -58.499 7 192698588.388 7 156583366.941 7 149006767.991 7        45.500          45.900          45.800
C11  23330329.883 7  23330318.285 7  23330326.980 7       963.785 7       789.188 7       751.001 7 121487189.801 7  98718261.233 7  93941607.208 7        45.900          46.900          46.800
C16  36648160.375 7  36648150.441 7  36648160.840 7     -1094.098 7      -887.316 7      -844.382 7 190836578.816 7 155070366.864 7 147566939.399 7        47.200          45.000          45.900
C18  36922203.328 7  36922195.059 7                       -25.863 7       -21.462 7                 192263612.711 7 156229908.331 7                        47.000          45.700
C23  22687145.570 8  22687129.402 8                       758.742 8       617.509 8                 118137950.275 8  95996711.536 8                        49.300          49.600
C25  23039752.625 8  23039741.883 7                     -1033.680 8      -839.044 7                 119974062.147 8  97488769.515 7                        48.900          47.700
C28  25945277.242 5  25945272.246 6                      3160.203 5      2566.838 6                 135103867.53715 109782936.16116                        33.700          38.400
E02  27285005.398 6  27285013.934 7  27285009.375 6  27285010.988 7      1553.043 6      1160.755 7      1191.036 6      1175.896 7 143383673.739 6 107072259.796 7 109865433.241 6 108468842.121 7        40.100          44.800          41.100          46.200
E03  24826870.625 8  24826876.547 8  24826873.246 8  24826874.539 8       728.602 8       548.935 8       563.255 8       556.095 8 130466097.298 8  97426022.818 8  99967551.831 8  98696782.430 8        48.500          49.000          49.000          51.500
E05  24248279.852 8  24248286.594 8  24248283.430 8  24248284.617 8     -1910.539 8     -1422.926 8     -1460.046 8     -1441.486 8 127425572.908 8  95155460.868 8  97637777.153 8  96396619.112 8        50.000          50.200          51.000          52.900
E09  25542834.016 5  25542847.234 6  25542843.004 6  25542845.172 6     -3046.090 5     -2274.676 6     -2334.017 6     -2304.346 6 134228393.990 5 100235481.420 6 102850305.926 6 101542888.274 6        35.700          37.700          36.500          40.400
E14  17619821.141 8  17619835.789 8  17619832.340 8  17619833.699 8      1430.285 8      1083.262 8      1111.521 8      1097.391 8  92592800.920 8  69144000.467 8  70947755.794 8  70045877.739 8        48.800          50.500          50.600          53.800
E24  22953969.664 8  22953986.109 8  22953983.285 8  22953984.383 8     -1344.121 8     -1003.835 8     -1030.023 8     -1016.929 8 120623961.966 8  90076345.602 8  92426162.316 8  91251254.563 8        48.300          48.500          48.900          51.300
E25  23563767.445 8  23563773.906 8  23563770.043 8  23563771.438 8       240.293 8       180.486 8       185.195 8       182.840 8 123828452.925 8  92469304.291 8  94881547.388 8  93675425.441 8        49.500          50.800          50.400          53.200
G03  23563079.422 7  23563089.184 4  23563089.234 6  23563090.461 7     -1718.797 7     -1335.395 4     -1335.395 6     -1279.753 7 123824740.556 7  96486900.086 4  96486882.082 6  92466593.775 7        42.100          28.000          41.700          44.100
G14  22407420.445 6  22407426.992 4                                     -3008.871 6     -2340.543 4                                 117751760.540 6  91754670.407 4                                        41.800          28.100
G16  20291861.719 8  20291867.309 7                                       417.266 8       330.857 7                                 106634684.058 8  83091830.427 7                                        48.600          42.500
G21  25414295.563 5  25414302.973 2                                       998.719 5       780.579 2                                 133553065.11315 104067326.95512                                        33.700          17.400
G22  24159673.383 6  24159678.313 3                                     -2035.297 6     -1584.559 3                                 126959870.464 6  98929826.537 3                                        37.500          21.300
G23  22893621.547 7  22893626.273 5                                      2890.047 7      2255.485 5                                 120306896.420 7  93745582.792 5                                        44.300          31.300
G26  20515071.258 8  20515080.184 7  20515080.043 8  20515079.641 9     -1139.227 8      -883.953 7      -883.953 8      -847.122 9 107807524.264 8  84005861.509 7  84005819.500 8  80505577.281 9        51.600          44.900          49.900          54.500
G27  22358227.266 7  22358236.063 5  22358235.641 7  22358235.695 8      3431.469 7      2677.029 5      2677.029 7      2565.486 8 117493403.142 7  91553383.675 5  91553304.664 7  87738588.928 8        43.500          34.000          45.700          48.200
G31  21839827.492 8  21839832.824 6  21839832.770 7                     -1289.090 8     -1002.550 6     -1002.550 7                 114769109.757 8  89430521.575 6  89430488.573 7                        49.500          37.500          45.100
G32  24241346.148 5                  24241357.230 5  24241360.645 6     -3645.172 5                     -2838.698 5     -2720.417 6 127389069.68415                  99264208.581 5  95128179.125 6        30.100                          35.000          37.500
J01  37043931.156 6  37043939.125 6  37043944.609 7      -501.820 6      -390.729 6      -374.447 7 194667121.023 6 151688657.686 6 145368294.086 7        37.300          40.100          44.100
J02  39506620.797 7  39506626.227 8  39506629.840 8       344.797 7       267.452 8       256.308 8 207608688.008 7 161772998.950 8 155032456.791 8        46.300          49.800          52.000
J03  37556498.719 7  37556504.855 8  37556508.363 8      -320.137 7      -248.660 8      -238.299 8 197360805.206 7 153787616.182 8 147379799.938 8        46.700          50.300          51.200
J07  36817917.813 6  36817923.188 8  36817927.195 8        -2.688 6        -2.077 8        -1.990 8 193479473.473 6 150763200.733 8 144481399.595 8        40.500          48.900          52.000
R03  22476331.578 7  22476330.742 6  22476337.547 6  22476335.887 6     -4237.730 7     -4235.610 6     -3294.355 6     -3294.354 6 120317558.273 7 120317533.296 6  93580295.675 6  93580301.676 6        42.400          41.700          39.100          38.900
R04  20208447.234 8  20208446.055 8  20208450.008 8  20208450.285 7     -1558.195 8     -1546.069 8     -1202.498 8     -1202.498 7 108215336.848 8 108215336.845 8  84167489.505 8  84167488.512 7        51.200          49.900          48.100          47.400
R05  21845061.844 7  21845060.785 7  21845065.668 7  21845065.738 7      2113.031 7      2124.241 7      1652.188 7      1652.188 7 116774562.366 7 116774372.394 7  90824510.949 7  90824531.946 7        46.400          45.200          43.400          43.000
R13  22664957.039 6  22664956.090 6  22664962.605 5  22664960.770 5     -2049.156 6     -2049.635 6     -1594.161 5     -1594.160 5 121029676.388 6 121029660.378 6  94134187.291 5  94134193.281 5        39.100          36.900          34.300          34.400
R14  20538616.258 8  20538615.566 8  20538620.730 7  20538619.949 7      -500.258 8      -498.794 8      -387.951 7      -387.951 7 109482421.041 8 109482424.036 8  85153008.985 7  85153023.987 7        51.600          50.000          47.500          46.700
R15  21888822.680 7  21888822.820 7  21888826.523 7  21888827.480 7      1460.969 7      1462.610 7      1137.586 7      1137.585 7 116967253.102 7 116967278.115 7  90974566.857 7  90974574.862 7        46.100          45.300          42.900          42.700
R17  23146857.406 5  23146855.848 5  23146863.625 5  23146864.566 5      4012.215 5      4012.301 5      3120.657 5      3120.755 5 123863529.02115 123863571.978 5  96338360.023 5  96338338.01615        31.900          31.700          33.300          31.900
R23  22138046.156 7  22138044.551 7  22138050.566 6  22138052.816 6      -716.121 7      -703.651 7      -547.283 6      -547.284 6 118423721.461 7 118423711.456 7  92107323.096 6  92107372.121 6        45.000          43.200          37.700          37.100
R24  21503901.766 7  21503900.633 7  21503902.992 5  21503903.703 5      2388.188 7      2397.338 7      1864.596 5      1864.596 5 114991154.566 7 114991164.557 7  89437482.358 5  89437517.381 5        43.000          42.000          32.200          32.800
S22  37578284.031 6  37577724.328 7        64.707 6        48.183 7 197431765.416 6 147430887.783 7        41.700          43.700
S27  39746899.078 5  39746893.984 6        -2.387 5        -1.783 6 208871383.772 5                        31.600          38.300
S29  37669810.500 6                        -6.563 6                 197956197.835 6                        38.800
S30  37505004.125 7                       -38.730 7                 197090143.211 7                        43.600
S32  37212318.047 6                        -1.504 6                 195552072.019 6                        37.600
S37  37669799.438 6                        -6.094 6                 197956116.858 6                        39.200
S40  37027661.609 7                        46.168 7                 194550640.839 7                        44.800
> 2019 02 14 07 10  0.0000000  0 51
C01  37345510.406 6  37345495.465 7  37345501.355 7        37.160 6        30.218 7        28.756 7 194467852.713 6 158020996.175 7 150374831.974 7        40.700          43.000          44.600
C02  37831334.250 6  37831323.777 7  37831328.410 7       -17.844 6       -14.404 7       -13.709 7 196997663.581 6 160076688.315 7 152331054.005 7        37.500          42.100          42.900
C03  36796317.703 6  36796306.758 7  36796312.945 7        25.125 6        20.423 7        19.434 7 191608064.993 6 155697199.147 7 148163480.391 7        41.800          44.500          44.800
C04  38687292.117 6  38687280.508 6  38687286.211 6        21.816 6        17.812 6        16.950 6 201454913.670 6 163698518.514 6 155777642.877 6        37.000          40.900          39.500
C05  39561071.953 5  39561062.828 6  39561068.836 6       -14.492 5                                 206004906.57415 167395804.17916 159296030.43816        33.400          38.700          37.500
C06  36427517.422 7  36427504.680 7  36427512.852 7     -1002.840 7      -813.021 7      -773.680 7 189687640.002 7 154136688.729 7 146678486.778 7        44.500          46.600          45.200
C07  36269993.297 7  36269978.297 7  36269986.941 7      -203.727 7      -165.588 7      -157.576 7 188867393.419 7 153470171.842 7 146044227.194 7        47.900          47.400          47.200
C09  35768937.836 7  35768924.781 7  35768934.367 8      -527.887 7      -426.835 7      -406.182 8 186258237.056 7 151350023.727 7 144026667.373 8        46.700          47.200          48.200
C10  37006170.305 7  37006157.355 7  37006167.262 7       -76.301 7       -61.759 7       -58.771 7 192700868.501 7 156585219.718 7 149008531.113 7        44.900          45.600          46.000
C11  23324820.664 7  23324809.023 7  23324817.840 7       948.652 7       777.031 7       739.433 7 121458502.273 7  98694950.312 7  93919424.223 7        45.600          47.500          47.000
C16  36654477.602 7  36654467.496 7  36654477.602 7     -1098.730 7      -890.958 7      -847.847 7 190869472.423 7 155097095.615 7 147592374.816 7        47.000          44.800          45.400
C18  36922350.258 7  36922341.875 7                       -25.059 7       -20.736 7                 192264378.264 7 156230530.402 7                        46.400          45.700
C23  22682781.703 8  22682765.215 8                       756.223 8       615.521 8                 118115225.627 8  95978245.901 8                        49.200          49.200
C25  23045715.406 8  23045705.164 8                     -1036.398 8      -841.060 8                 120005113.538 8  97514001.305 8                        48.100          48.200
C28  25927061.688 5  25927057.172 6                      3162.855 5      2569.107 6                 135009017.482 5 109705862.958 6                        33.300          38.400
E02  27276148.641 6  27276157.184 7  27276152.484 6  27276154.328 7      1549.762 6      1158.489 7      1188.712 6      1173.600 7 143337132.613 6 107037505.114 7 109829771.895 6 108433634.111 7        37.500          44.000          40.500          45.300
E03  24822749.898 8  24822756.242 8  24822752.355 8  24822753.844 8       715.105 8       539.021 8       553.082 8       546.051 8 130444442.766 8  97409852.201 8  99950959.378 8  98680400.893 8        48.800          49.400          48.700          51.500
E05  24259216.758 8  24259223.508 8  24259220.043 8  24259221.375 8     -1920.969 8     -1430.602 8     -1467.922 8     -1449.263 8 127483045.838 8  95198378.939 8  97681814.820 8  96440096.993 8        49.800          50.400          50.700          52.900
E09  25560223.609 6  25560236.855 6  25560232.441 6  25560234.695 6     -3046.027 6     -2274.597 6     -2333.936 6     -2304.266 6 134319774.260 6 100303719.326 6 102920324.010 6 101612016.263 6        36.100          37.400          36.500          40.000
E14  17611773.414 8  17611788.414 8  17611785.227 8  17611786.004 8      1389.094 8      1052.681 8      1080.143 8      1066.412 8  92550510.595 8  69112420.048 8  70915351.512 8  70013885.385 8        48.200          51.000          50.600          53.400
E24  22961644.539 8  22961661.063 8  22961658.344 8  22961659.063 8     -1344.477 8     -1003.909 8     -1030.098 8     -1017.004 8 120664292.981 8  90106462.875 8  92457065.250 8  91281764.668 8        48.600          48.600          48.800          51.400
E25  23562405.203 8  23562411.270 8  23562407.711 8  23562409.164 8       236.977 8       178.191 8       182.839 8       180.515 8 123821294.301 8  92463958.565 8  94876062.211 8  93670009.991 8        49.800          50.800          50.900          53.600
G03  23572921.430 6  23572930.676 4  23572930.699 6  23572932.426 7     -1728.992 6     -1343.367 4     -1343.367 6     -1287.393 7 123876460.224 6  96527201.106 4  96527183.099 6  92505215.571 7        41.200          26.700          39.800          43.300
G14  22424628.750 6  22424635.395 4                                     -3019.738 6     -2348.835 4                                 117842190.745 6  91825135.456 4                                        41.800          28.200
G16  20289522.891 8  20289528.266 7                                       402.164 8       319.245 7                                 106622393.093 8  83082253.066 7                                        48.800          43.100
G21  25408615.664 5                                                       991.773 5                                                 133523215.97815                                                        32.200
G22  24171304.742 6  24171309.660 3                                     -2039.367 6     -1587.549 3                                 127020991.311 6  98977453.019 3                                        38.300          21.100
G23  22877149.984 7  22877154.781 5                                      2880.453 7      2248.237 5                                 120220339.283 7  93678135.694 5                                        44.400          31.100
G26  20521602.289 8  20521611.324 7  20521611.027 8  20521610.742 9     -1148.898 8      -891.480 7      -891.481 8      -854.336 9 107841846.245 8  84032605.918 7  84032563.924 8  80531207.349 9        51.200          44.900          50.500          54.600
G27  22338661.625 7  22338671.309 5  22338670.629 7  22338670.734 8      3422.941 7      2670.521 5      2670.521 7      2559.248 8 117390587.939 7  91473268.030 5  91473189.034 7  87661811.477 8        43.000          33.700          46.000          48.700
G31  21847202.547 8  21847207.805 6  21847207.809 7                     -1294.574 8     -1006.640 6     -1006.640 7                 114807865.409 8  89460720.774 6  89460687.772 7                        49.100          37.800          44.900
G32  24262166.227 4                  24262178.527 5  24262181.074 6     -3648.953 4                     -2841.905 5     -2723.490 6                                  99349465.740 5  95209883.837 6        28.300                          32.700          36.900
J01  37046799.000 6  37046806.133 6  37046811.590 7      -502.484 6      -391.352 6      -375.045 7 194682188.126 6 151700398.244 6 145379545.439 7        36.900          40.400          44.100
J02  39504644.156 7  39504649.816 8  39504653.199 8       347.668 7       269.796 8       258.555 8 207598300.852 7 161764905.065 8 155024700.154 8        46.100          49.700          52.700
J03  37558332.344 7  37558338.563 8  37558341.902 8      -322.223 7      -250.278 8      -239.851 8 197370440.902 7 153795124.531 8 147386995.462 8        46.600          49.700          51.400
J07  36817932.844 6  36817938.281 8  36817942.344 8        -2.770 6        -2.063 8        -1.977 8 193479552.894 6 150763262.613 8 144481458.902 8        40.300          49.600          52.300
R03  22500093.813 7  22500092.566 6  22500099.684 6  22500098.754 6     -4242.305 7     -4239.993 6     -3297.765 6     -3297.765 6 120444758.071 7 120444733.078 6  93679228.618 6  93679234.629 6        42.600          40.700          39.700          40.200
R04  20217244.469 8  20217243.648 8  20217248.527 7  20217247.848 7     -1582.660 8     -1570.430 8     -1221.445 7     -1221.445 7 108262449.722 8 108262449.735 8  84204132.850 7  84204131.855 7        51.400          49.900          47.300          47.300
R05  21833267.984 7  21833267.055 7  21833271.953 7  21833272.090 7      2090.059 7      2101.515 7      1634.511 7      1634.511 7 116711516.928 7 116711326.934 7  90775475.619 7  90775496.624 7        47.200          45.900          44.100          43.600
R13  22676469.727 6  22676468.059 6  22676471.719 5  22676472.375 5     -2048.758 6     -2048.993 6     -1593.659 5     -1593.659 5 121091146.153 6 121091130.176 6  94181997.048 5  94182003.060 5        40.100          37.600          35.300          34.600
R14  20541440.242 8  20541439.688 8  20541444.773 7  20541444.598 7      -503.473 8      -501.874 8      -390.347 7      -390.347 7 109497477.272 8 109497480.259 8  85164719.392 7  85164734.395 7        50.700          49.800          47.700          47.100
R15  21880630.797 7  21880630.633 7  21880634.445 7  21880635.078 7      1457.473 7      1459.193 7      1134.927 7      1134.926 7 116923477.320 7 116923502.338 7  90940519.055 7  90940527.073 7        46.400          44.800          42.800          42.000
R17  23124361.539 5  23124360.711 5  23124369.922 5  23124369.941 5      4012.188 5      4012.359 5      3120.705 5      3120.704 5 123743158.243 5 123743201.217 5  96244738.866 5  96244716.909 5        32.300          31.000          33.400          33.900
R23  22142132.406 7  22142130.813 7  22142139.199 6  22142139.887 6      -741.434 7      -728.771 7      -566.822 6      -566.822 6 118445584.578 7 118445574.594 7  92124327.752 6  92124376.770 6        44.800          43.300          37.800          36.300
R24  21490555.813 7  21490555.059 6  21490558.297 5  21490558.527 5      2369.219 7      2378.730 6      1850.121 5      1850.121 5 114919792.682 7 114919802.666 6  89381978.728 5  89382013.740 5        42.600          41.100          32.700          31.700
S22  37577909.016 7  37577349.703 7        64.691 7        48.177 7 197429836.080 7 147429442.467 7        42.000          43.200
S29  37669845.438 6                        -6.539 6                 197956397.581 6                        38.100
S30  37505227.500 7                       -38.996 7                 197091309.601 7                        43.900
S32  37212318.734 6                        -1.145 6                 195552104.703 6                        37.400
S37  37669842.766 6                        -6.809 6                 197956316.460 6                        39.400
S40  37027498.797 7                        46.496 7                 194549244.244 7                        44.800
> 2019 02 14 07 10 30.0000000  0 51
C01  37345296.289 6  37345281.258 7  37345287.031 7        37.090 6        30.206 7        28.744 7 194466737.529 6 158020090.001 7 150373969.654 7        40.700          42.900          45.100
C02  37831436.039 6  37831425.523 7  37831430.105 7       -17.613 6       -14.358 7       -13.663 7 196998193.648 6 160077119.056 7 152331463.894 7        37.600          42.200          43.200
C03  36796173.180 7  36796162.031 7  36796168.035 7        25.063 7        20.412 7        19.424 7 191607311.390 7 155696586.785 7 148162897.659 7        42.000          45.000          45.100
C04  38687165.148 6  38687154.133 6  38687159.883 6        21.859 6        17.824 6        16.962 6 201454255.595 6 163697983.788 6 155777134.021 6        36.400          40.500          39.200
C05  39561153.039 5  39561144.668 6  39561150.617 6       -14.051 5                                 206005332.77315 167396150.31216 159296359.77316        34.000          37.600          37.600
C06  36433307.672 7  36433294.734 7  36433302.789 7     -1007.344 7      -816.638 7      -777.124 7 189717789.774 7 154161187.881 7 146701800.500 7        44.900          46.400          45.200
C07  36271165.125 8  36271150.266 8  36271158.563 8      -203.328 8      -165.274 8      -157.277 8 188873495.219 8 153475130.056 8 146048945.494 8        48.500          48.200          48.000
C09  35771992.898 7  35771980.066 7  35771989.715 8      -532.930 7      -430.944 7      -410.092 8 186274147.250 7 151362952.058 7 144038970.141 8        46.400          47.200          48.600
C10  37006609.875 7  37006597.215 7  37006607.121 7       -76.559 7       -62.051 7       -59.048 7 192703159.368 7 156587081.234 7 149010302.553 7        44.000          46.500          45.300
C11  23319398.078 7  23319386.254 7  23319395.137 7       933.621 7       764.816 7       727.809 7 121430265.734 7  98672005.819 7  93897589.947 7        45.500          46.900          45.900
C16  36660820.289 7  36660810.289 7  36660820.191 7     -1103.277 7      -894.613 7      -851.326 7 190902500.977 7 155123934.018 7 147617914.586 7        47.000          44.800          45.300
C18  36922492.000 7  36922483.973 7                       -24.250 7       -20.021 7                 192265117.422 7 156231131.030 7                        46.500          45.700
C23  22678431.523 8  22678415.297 8                       753.660 8       613.516 8                 118092575.000 8  95959840.411 8                        49.300          50.000
C25  23051692.539 7  23051682.699 8                     -1038.902 7      -843.102 8                 120036240.338 7  97539294.369 8                        47.900          48.500
C28  25908830.016 5  25908826.621 6                      3165.879 5      2571.347 6                 134914084.680 5 109628722.546 6                        32.000          38.900
E02  27267309.898 6  27267317.473 7  27267312.918 6  27267314.977 7      1546.766 6      1156.217 7      1186.381 6      1171.299 7 143290682.765 6 107002818.591 7 109794180.475 6 108398495.136 7        37.800          43.100          39.700          44.700
E03  24818705.086 8  24818711.820 8  24818707.305 8  24818709.211 8       701.766 8       529.073 8       542.875 8       535.974 8 130423187.857 8  97393980.022 8  99934673.135 8  98664321.683 8        48.300          49.900          48.400          52.200
E05  24270212.102 8  24270219.180 8  24270215.074 8  24270216.656 8     -1931.250 8     -1438.262 8     -1475.782 8     -1457.021 8 127540826.443 8  95241526.788 8  97726088.275 8  96483807.635 8        49.300          50.700          50.100          52.900
E09  25577612.070 5  25577626.242 6  25577620.934 6  25577623.492 6     -3045.957 5     -2274.491 6     -2333.829 6     -2304.160 6 134411150.334 5 100371954.055 6 102990338.866 6 101681141.059 6        34.800          38.100          36.000          39.700
E14  17603960.813 8  17603975.191 8  17603971.938 8  17603973.191 8      1347.813 8      1021.977 8      1048.637 8      1035.307 8  92509453.787 8  69081760.729 8  70883892.403 8  69982826.166 8        48.700          50.800          50.400          53.000
E24  22969319.742 8  22969336.641 8  22969333.461 8  22969334.359 8     -1344.563 8     -1003.990 8     -1030.181 8     -1017.086 8 120704627.177 8  90136582.582 8  92487970.678 8  91312277.236 8        48.900          49.000          48.600          51.300
E25  23561060.555 8  23561066.668 8  23561062.898 8  23561064.469 8       233.887 8       175.896 8       180.484 8       178.190 8 123814227.885 8  92458681.691 8  94870647.686 8  93664664.292 8        50.600          51.300          50.800          53.300
G03  23582821.836 6  23582830.793 4  23582831.098 6  23582832.813 7     -1739.293 6     -1351.287 4     -1351.287 6     -1294.984 7 123928484.831 6  96567739.709 4  96567721.702 6  92544065.085 7        41.800          26.900          40.600          43.700
G14  22441897.727 6  22441904.586 4                                     -3030.352 6     -2357.096 4                                 117932939.005 6  91895848.342 4                                        41.500          27.100
G16  20287268.734 8  20287273.980 7                                       387.293 8       307.643 7                                 106610548.804 8  83073023.761 7                                        48.600          42.300
G21  25402974.625 5  25402980.598 2                                       984.828 5                                                 133493573.09715 104020958.71912                                        33.100          15.600
G22  24182956.719 6  24182962.730 3                                     -2043.078 6     -1590.479 3                                 127082224.873 6  99025167.382 3                                        39.200          21.800
G23  22860732.539 7  22860737.090 5                                      2871.113 7      2240.908 5                                 120134064.302 7  93610908.438 5                                        43.900          31.900
G26  20528188.484 8  20528197.730 7  20528197.277 8  20528196.973 9     -1158.508 8      -898.979 7      -898.979 8      -861.521 9 107876456.936 8  84059575.285 7  84059533.284 8  80557052.991 9        51.200          44.900          50.400          54.900
G27  22319144.133 7  22319154.020 5  22319153.574 7  22319154.039 8      3414.191 7      2663.917 5      2663.917 7      2552.920 8 117288027.020 7  91393350.526 5  91393271.526 7  87585223.875 8        42.100          33.400          45.600          48.800
G31  21854607.570 8  21854613.145 6  21854613.195 7                     -1299.863 8     -1010.758 6     -1010.759 7                 114846779.635 8  89491043.524 6  89491010.537 7                        49.500          37.600          45.000
J01  37049670.188 6  37049678.211 6  37049683.738 7      -503.523 6      -391.982 6      -375.648 7 194697279.578 6 151712157.702 6 145390814.889 7        37.400          40.000          43.800
J02  39502650.375 7  39502655.980 8  39502659.652 8       350.613 7       272.121 8       260.783 8 207587824.212 7 161756741.445 8 155016876.678 8        46.400          49.600          52.000
J03  37560177.922 7  37560184.063 8  37560187.613 8      -324.391 7      -251.914 8      -241.418 8 197380139.570 7 153802681.953 8 147394237.988 8        46.000          49.200          51.400
J07  36817947.953 6  36817953.680 8  36817957.438 8        -2.887 6        -2.066 8        -1.980 8 193479632.454 6 150763324.607 8 144481518.306 8        40.300          48.700          52.300
R03  22523879.867 6  22523877.074 6  22523884.801 6  22523885.527 6     -4246.504 6     -4244.253 6     -3301.078 6     -3301.078 6 120572085.637 6 120572060.670 6  93778260.950 6  93778266.957 6        39.900          40.300          40.700          39.400
R04  20226178.734 8  20226178.270 8  20226182.406 7  20226182.266 7     -1606.969 8     -1594.712 8     -1240.331 7     -1240.331 7 108310291.089 8 108310291.094 8  84241342.772 7  84241341.777 7        51.100          49.800          47.800          47.200
R05  21821601.859 7  21821601.449 7  21821606.141 7  21821605.977 7      2067.082 7      2078.691 7      1616.759 7      1616.759 7 116649156.197 7 116648966.196 7  90726972.842 7  90726993.841 7        47.600          46.000          43.800          43.800
R13  22687976.383 6  22687975.590 6  22687980.730 5  22687980.563 5     -2048.168 6     -2048.390 6     -1593.191 5     -1593.191 5 121152597.833 6 121152581.865 6  94229792.791 5  94229798.789 5        38.300          36.900          33.900          34.100
R14  20544282.172 8  20544281.254 8  20544286.957 7  20544286.426 7      -506.566 8      -504.957 8      -392.744 7      -392.744 7 109512625.972 8 109512628.966 8  85176501.699 7  85176516.708 7        50.700          50.100          47.100          46.300
R15  21872457.891 7  21872458.309 7  21872462.223 7  21872462.734 7      1454.023 7      1455.789 7      1132.278 7      1132.278 7 116879803.673 7 116879828.676 7  90906550.718 7  90906558.736 7        46.000          46.200          43.000          42.200
R17  23101868.742 5  23101866.863 5  23101875.508 5  23101876.117 5      4012.008 5      4012.417 5      3120.624 5      3120.625 5 123622790.569 5 123622833.57015  96151120.143 5  96151098.155 5        30.700          30.300          35.100          34.200
R23  22146359.969 7  22146359.852 7  22146365.922 6  22146367.598 6      -766.566 7      -753.908 7      -586.373 6      -586.373 6 118468201.838 7 118468191.846 7  92141918.934 6  92141967.947 6        44.900          43.100          37.200          36.200
R24  21477316.023 7  21477315.926 7  21477321.086 5  21477319.406 5      2350.395 7      2359.960 7      1835.523 5      1835.523 5 114848993.860 7 114849003.878 7  89326913.048 5  89326948.058 5        43.200          42.500          33.400          32.500
S22  37577534.156 7  37576975.539 7        64.289 7        47.991 7 197427897.573 7 147428002.747 7        42.800          43.200
S27  39746926.016 5  39746922.023 6        -2.551 5                 208871513.06015                        33.000          38.300
S29  37669883.891 6                        -6.383 6                 197956595.142 6                        38.600
S30  37505452.781 7                       -39.148 7                 197092479.594 7                        43.900
S32  37212318.578 6                        -1.113 6                 195552136.372 6                        37.600
S37  37669879.766 6                        -6.551 6                 197956514.466 6                        39.400
S40  37027351.047 7                        46.453 7                 194547856.037 7                        44.900
> 2019 02 14 07 11  0.0000000  0 51
C01  37345082.484 6  37345067.391 7  37345072.836 7        37.184 6        30.183 7        28.722 7 194465623.183 6 158019184.523 7 150373107.985 7        40.800          42.800          44.600
C02  37831537.406 6  37831527.195 7  37831531.426 7       -17.578 6       -14.324 7       -13.631 7 196998722.494 6 160077548.780 7 152331872.830 7        37.300          42.400          42.800
C03  36796027.969 6  36796017.547 7  36796023.699 7        25.078 6        20.389 7        19.403 7 191606558.613 6 155695975.102 7 148162315.576 7        41.900          44.000          44.500
C04  38687039.375 6  38687027.715 6  38687033.445 6        21.855 6        17.822 6        16.959 6 201453597.609 6 163697449.133 6 155776625.240 6        36.700          41.000          39.600
C05  39561235.234 5  39561226.535 6  39561232.371 6       -14.063 5                                 206005757.29615 167396495.09216 159296687.82416        33.700          37.500          37.600
C06  36439123.352 7  36439110.391 7  36439118.535 7     -1011.633 7      -820.262 7      -780.572 7 189748073.330 7 154185795.745 7 146725217.668 7        44.300          46.000          45.400
C07  36272334.672 8  36272319.879 8  36272328.277 7      -202.789 8      -164.962 8      -156.980 7 188879585.520 8 153480078.929 8 146053654.904 7        48.300          48.000          47.500
C09  35775077.766 7  35775064.801 7  35775074.430 8      -537.906 7      -435.067 7      -414.015 8 186290209.651 7 151376004.068 7 144051390.598 8        46.400          47.900          48.100
C10  37007052.367 7  37007039.184 7  37007048.953 7       -76.840 7       -62.343 7       -59.327 7 192705461.020 7 156588951.534 7 149012082.359 7        44.900          45.300          45.500
C11  23314062.031 7  23314050.660 7  23314059.402 7       918.602 7       752.554 7       716.140 7 121402481.900 7  98649429.203 7  93876105.740 7        45.400          47.400          46.500
C16  36667189.047 7  36667179.156 7  36667189.215 7     -1107.727 7      -898.273 7      -854.809 7 190935664.641 7 155150882.212 7 147643558.842 7        47.100          45.300          45.600
C18  36922628.906 7  36922621.109 7                       -23.297 7       -19.307 7                 192265830.222 7 156231710.235 7                        46.900          45.800
C23  22674096.156 8  22674080.285 8                       751.375 8       611.500 8                 118069998.829 8  95941495.422 8                        49.100          49.200
C25  23057684.914 7  23057674.992 7                     -1041.383 7      -845.164 7                 120067443.244 7  97564649.283 7                        47.900          47.800
C28  25890583.172 5  25890580.348 6                      3168.309 5      2573.521 6                 134819071.634 5 109551516.923 6                        31.500          38.100
E02  27258487.750 6  27258494.777 6  27258490.914 6  27258492.918 7      1543.758 6      1153.948 6      1184.051 6      1169.000 7 143244324.066 6 106968200.156 6 109758658.935 6 108363425.149 7        38.900          41.800          39.500          44.600
E03  24814736.570 7  24814743.266 8  24814738.859 7  24814740.809 8       688.570 7       519.099 8       532.640 7       525.870 8 130402333.625 7  97378407.052 8  99918693.923 7  98648545.597 8        47.900          49.600          47.900          51.800
E05  24281265.523 8  24281272.934 8  24281268.793 8  24281270.316 8     -1941.336 8     -1445.895 8     -1483.614 8     -1464.754 8 127598913.707 8  95284903.624 8  97770596.688 8  96527750.262 8        48.700          50.100          50.300          52.700
E09  25594999.922 6  25595014.270 6  25595008.316 6  25595011.156 6     -3045.605 6     -2274.354 6     -2333.686 6     -2304.021 6 134502520.862 6 100440184.688 6 103060349.438 6 101750261.671 6        36.200          36.300          36.200          38.200
E14  17596383.344 8  17596398.145 8  17596394.754 8  17596396.012 8      1306.609 8       991.158 8      1017.015 8      1004.086 8  92469635.054 8  69052025.978 8  70853381.965 8  69952703.578 8        49.300          50.600          50.800          52.900
E24  22976995.531 8  22977012.809 8  22977009.191 8  22977010.344 8     -1344.637 8     -1004.069 8     -1030.262 8     -1017.165 8 120744964.567 8  90166704.644 8  92518878.542 8  91342792.200 8        48.100          48.800          48.200          51.300
E25  23559733.094 8  23559739.543 8  23559736.254 8  23559737.250 8       230.996 8       173.611 8       178.140 8       175.875 8 123807253.227 8  92453473.358 8  94865303.482 8  93659388.029 8        50.300          51.100          50.900          53.300
G03  23592779.422 6  23592788.941 4  23592789.496 6  23592791.359 7     -1749.207 6     -1359.144 4     -1359.145 6     -1302.514 7 123980811.962 6  96608514.041 4  96608496.047 6  92583140.507 7        41.400          27.500          41.100          44.700
G14  22459226.344 6  22459233.590 4                                     -3040.594 6     -2365.313 4                                 118024003.552 6  91966807.717 4                                        41.600          25.400
G16  20285099.828 8  20285105.137 7                                       372.496 8       296.050 7                                 106599150.857 8  83064142.257 7                                        49.100          43.000
G21  25397374.367 5  25397379.680 2                                       977.547 5                                                                                                                        32.600          15.600
G22  24194630.578 6  24194636.773 3                                     -2046.445 6     -1593.352 3                                 127143569.079 6  99072967.939 3                                        38.400          21.700
G23  22844369.305 7  22844373.527 5                                      2861.543 7      2233.494 5                                 120048074.746 7  93543903.604 5                                        44.300          30.400
G26  20534829.594 8  20534838.738 7  20534838.289 8  20534837.816 9     -1167.977 8      -906.441 7      -906.441 8      -868.672 9 107911354.906 8  84086768.512 7  84086726.510 8  80583113.158 9        51.400          44.700          49.600          54.500
G27  22299676.898 6  22299685.984 5  22299686.141 7  22299686.566 8      3405.789 6      2657.218 5      2657.218 7      2546.500 8 117185723.990 6  91313633.979 5  91313554.990 7  87508828.879 8        41.600          33.000          45.300          48.800
G31  21862043.352 8  21862048.590 6  21862048.535 7                     -1305.086 8     -1014.899 6     -1014.899 7                 114885853.270 8  89521490.494 6  89521457.500 7                        49.900          37.600          44.900
J01  37052546.281 6  37052554.789 6  37052560.332 7      -504.320 6      -392.615 6      -376.255 7 194712395.348 6 151723936.146 6 145402102.550 7        36.900          40.500          44.100
J02  39500639.672 7  39500645.590 8  39500649.129 8       353.730 7       274.431 8       262.997 8 207577258.594 7 161748508.503 8 155008986.769 8        47.900          49.300          52.700
J03  37562035.531 7  37562041.707 8  37562045.473 8      -326.453 7      -253.558 8      -242.993 8 197389901.533 7 153810288.683 8 147401527.764 8        47.100          49.100          51.400
J07  36817963.453 6  36817968.930 8  36817972.785 8        -2.625 6        -2.081 8        -1.994 8 193479712.554 6 150763387.037 8 144481578.138 8        40.400          48.800          52.200
R03  22547687.914 6  22547687.113 6  22547694.754 6  22547694.555 6     -4250.320 6     -4248.385 6     -3304.292 6     -3304.292 6 120699537.221 6 120699512.230 6  93877389.706 6  93877395.700 6        40.600          39.500          40.400          39.300
R04  20235248.258 8  20235246.875 8  20235251.961 8  20235252.035 7     -1630.930 8     -1618.920 8     -1259.159 8     -1259.159 7 108358858.669 8 108358858.689 8  84279117.555 8  84279116.553 7        49.900          49.700          48.000          47.700
R05  21810064.828 7  21810064.043 7  21810069.199 7  21810068.805 7      2044.309 7      2055.758 7      1598.923 7      1598.923 7 116587483.438 7 116587293.445 7  90679005.164 7  90679026.155 7        47.600          46.300          43.300          43.700
R13  22699481.344 6  22699478.875 6  22699485.371 5  22699485.008 5     -2047.461 6     -2047.794 6     -1592.728 5     -1592.730 5 121214031.706 6 121214015.692 6  94277574.635 5  94277580.686 5        37.900          36.600          34.700          34.000
R14  20547141.773 8  20547141.277 8  20547145.871 7  20547145.625 7      -509.508 8      -508.033 8      -395.136 7      -395.136 7 109527866.933 8 109527869.943 8  85188355.788 7  85188370.775 7        51.500          50.200          47.200          46.800
R15  21864303.461 7  21864303.410 7  21864307.758 7  21864308.738 7      1450.762 7      1452.394 7      1129.638 7      1129.639 7 116836231.854 7 116836256.866 7  90872661.572 7  90872669.576 7        44.900          44.900          43.300          42.800
R17  23079376.539 5  23079374.641 5  23079382.938 5  23079383.422 5      4011.941 5      4012.000 5      3120.426 5      3120.547 5 123502430.54615 123502473.576 5  96057507.369 5  96057485.34615        31.600          30.800          35.800          35.400
R23  22150730.539 7  22150728.688 7  22150735.520 6  22150736.410 5      -791.598 7      -779.044 7      -605.923 6      -605.923 5 118491573.146 7 118491563.166 7  92160096.631 6  92160145.625 5        45.100          43.600          37.300          35.600
R24  21464182.336 7  21464181.859 7  21464186.223 5  21464185.500 5      2331.566 7      2341.036 7      1820.804 5      1820.804 5 114778762.809 7 114778772.806 7  89272288.935 5  89272323.942 5        43.800          42.000          32.300          32.400
S22  37577163.328 6  37576601.504 7        64.430 6        48.118 7 197425965.171 6 147426559.219 7        41.900          44.100
S27  39746939.516 5  39746935.699 6        -2.313 5        -1.839 6 208871587.326 5                        31.900          38.900
S29  37669926.438 6                        -6.586 6                 197956795.013 6                        39.000
S30  37505675.328 7                       -39.191 7                 197093653.568 7                        43.800
S32  37212336.828 6                        -1.230 6                 195552170.787 6                        38.100
S37  37669914.938 6                        -6.543 6                 197956713.253 6                        38.900
S40  37027187.078 7                        45.676 7                 194546458.310 7                        45.000
> 2019 02 14 07 11 30.0000000  0 51
C01  37344868.570 6  37344853.539 7  37344859.176 7        37.141 6        30.163 7        28.704 7 194464509.575 6 158018279.626 7 150372246.877 7        40.700          43.100          44.300
C02  37831638.422 6  37831628.332 6  37831632.914 7       -17.566 6       -14.282 6       -13.591 7 196999249.767 6 160077977.234 6 152332280.556 7        37.800          41.600          43.500
C03  36795884.188 6  36795873.211 7  36795879.074 7        25.117 6        20.373 7        19.387 7 191605806.446 6 155695363.919 7 148161733.962 7        41.900          44.100          44.800
C04  38686912.523 6  38686901.223 6  38686907.020 6        21.934 6        17.829 6        16.965 6 201452939.382 6 163696914.277 6 155776116.277 6        37.100          40.400          39.100
C05  39561316.641 5  39561307.855 6  39561313.875 6       -14.184 5                                 206006179.81115 167396838.23216 159297014.32316        33.600          38.400          37.400
C06  36444964.688 7  36444951.813 7  36444959.648 7     -1016.020 7      -823.874 7      -784.009 7 189778490.232 7 154210511.972 7 146748737.942 7        44.900          46.000          44.900
C07  36273501.773 7  36273487.070 8  36273495.422 8      -202.367 7      -164.634 8      -156.668 8 188885663.714 7 153485017.959 8 146058354.956 8        47.500          48.400          48.000
C09  35778191.305 7  35778178.723 7  35778188.137 7      -542.957 7      -439.186 7      -417.935 7 186306424.101 7 151389179.636 7 144063928.637 7        46.700          47.500          47.900
C10  37007496.055 7  37007483.047 7  37007493.125 7       -77.148 7       -62.624 7       -59.594 7 192707773.054 7 156590830.249 7 149013870.168 7        45.000          45.100          45.700
C11  23308814.070 7  23308802.316 7  23308811.059 7       903.508 7       740.261 7       704.441 7 121375151.952 7  98627221.369 7  93854972.511 7        45.000          46.800          46.300
C16  36673583.727 7  36673573.496 7  36673583.773 7     -1112.113 7      -901.923 7      -858.282 7 190968963.057 7 155177939.895 7 147669307.295 7        47.200          44.700          45.600
C18  36922760.703 7  36922752.945 7                       -22.367 7       -18.580 7                 192266516.172 7 156232267.629 7                        46.600          45.900
C23  22669774.797 8  22669758.883 8                       748.945 8       609.488 8                 118047496.897 8  95923210.771 8                        49.300          49.900
C25  23063691.797 8  23063681.734 7                     -1043.828 8      -847.229 7                 120098722.380 8  97590066.138 7                        48.200          47.700
C28  25872322.039 5  25872318.691 6                      3170.906 5      2575.694 6                                                                        32.500          38.300
E02  27249683.398 6  27249690.043 6  27249686.840 6  27249688.090 7      1540.883 6      1151.697 6      1181.742 6      1166.719 7 143198055.810 6 106933649.260 6 109723206.666 6 108328423.570 7        38.600          41.300          40.200          43.400
E03  24810844.438 7  24810850.836 8  24810847.266 8  24810848.648 8       675.152 7       509.114 8       522.395 8       515.755 8 130381880.533 7  97363133.644 8  99903022.067 8  98633072.951 8        47.900          49.000          48.800          51.100
E05  24292377.250 8  24292384.543 8  24292380.719 8  24292381.969 8     -1951.418 8     -1453.486 8     -1491.403 8     -1472.444 8 127657305.957 8  95328508.208 8  97815338.777 8  96571923.597 8        48.900          51.000          49.800          52.900
E09  25612386.047 5  25612400.871 6  25612393.973 5  25612397.449 6     -3045.180 5     -2274.174 6     -2333.503 5     -2303.839 6 134593884.110 5 100508409.910 6 103130354.521 5 101819376.829 6        34.900          36.900          35.200          37.900
E14  17589042.648 8  17589057.105 8  17589053.457 8  17589055.070 8      1265.254 8       960.242 8       985.291 8       972.767 8  92431058.374 8  69023218.729 8  70823823.225 8  69923520.581 8        48.900          50.900          50.600          52.600
E24  22984672.055 8  22984688.984 8  22984685.691 7  22984686.813 8     -1344.688 8     -1004.131 8     -1030.326 7     -1017.229 8 120785304.465 8  90196828.588 8  92549788.335 7  91373309.059 8        48.300          48.600          47.900          51.300
E25  23558423.172 8  23558429.398 8  23558426.609 8  23558427.277 8       228.035 8       171.350 8       175.820 8       173.586 8 123800369.395 8  92448332.844 8  94860028.868 8  93654180.455 8        50.200          51.500          51.500          53.200
G03  23602793.148 6  23602803.148 4  23602804.258 6  23602805.262 7     -1759.035 6     -1366.926 4     -1366.927 6     -1309.970 7 124033438.680 6  96649521.832 4  96649503.848 6  92622439.614 7        39.900          27.300          40.900          44.600
G14  22476615.336 6  22476622.137 4                                     -3051.086 6     -2373.463 4                                 118115381.934 6  92038011.616 4                                        41.000          26.400
G16  20283015.586 8  20283020.617 7                                       357.828 8       284.500 7                                 106588197.614 8  83055607.269 7                                        49.100          42.200
G21  25391813.023 5  25391819.719 2                                       970.629 5                                                 133434915.05915 103975251.32312                                        35.800          17.400
G22  24206324.477 6  24206330.617 3                                     -2050.070 6     -1596.135 3                                 127205020.459 6  99120852.002 3                                        37.500          22.200
G23  22828060.469 7  22828064.387 5                                      2852.012 7      2226.021 5                                 119962372.899 7  93477122.960 5                                        44.200          30.700
G26  20541524.625 8  20541533.734 7  20541533.379 8  20541532.891 9     -1177.477 8      -913.850 7      -913.851 8      -875.773 9 107946538.152 8  84114184.024 7  84114142.030 8  80609386.356 9        50.900          44.600          49.900          54.500
G27  22280258.789 7  22280267.227 5  22280267.879 7  22280267.844 8      3397.168 7      2650.443 5      2650.444 7      2540.008 8 117083681.786 7  91234120.680 5  91234041.678 7  87432628.647 8        43.900          33.300          44.900          48.800
G31  21869508.469 8  21869514.414 6  21869514.277 7                     -1310.387 8     -1019.037 6     -1019.038 7                 114925086.217 8  89552061.607 6  89552028.627 7                        48.300          37.300          44.900
J01  37055427.484 6  37055435.238 6  37055441.559 7      -504.977 6      -393.232 6      -376.846 7 194727534.892 6 151735733.114 6 145413407.939 7        37.700          40.000          43.600
J02  39498612.172 8  39498618.082 8  39498621.617 8       356.695 8       276.747 8       265.216 8 207566603.804 8 161740206.078 8 155001030.288 8        48.100          49.600          52.500
J03  37563905.063 7  37563911.363 8  37563915.148 8      -328.430 7      -255.194 8      -244.561 8 197399726.467 7 153817944.500 8 147408864.601 8        47.100          49.600          51.400
J07  36817978.281 6  36817984.105 8  36817987.973 8        -2.688 6        -2.089 8        -2.002 8 193479792.958 6 150763449.700 8 144481638.197 8        40.400          48.800          52.100
R03  22571519.148 6  22571519.160 6  22571527.113 6  22571525.652 6     -4254.230 6     -4252.372 6     -3307.391 6     -3307.391 6 120827108.384 6 120827083.397 6  93976611.435 6  93976617.422 6        40.700          40.000          39.200          38.700
R04  20244453.094 8  20244452.227 8  20244456.801 7  20244456.309 7     -1655.066 8     -1643.036 8     -1277.916 7     -1277.916 7 108408149.750 8 108408149.755 8  84317455.040 7  84317454.045 7        51.000          50.000          47.100          46.900
R05  21798657.141 8  21798656.234 7  21798659.934 7  21798660.516 7      2021.262 8      2032.740 7      1581.020 7      1581.020 7 116526501.237 8 116526311.244 7  90631574.558 7  90631595.562 7        48.100          46.900          43.700          43.100
R13  22710982.914 6  22710981.316 6  22710986.766 5  22710986.504 5     -2046.898 6     -2047.220 6     -1592.281 5     -1592.281 5 121275448.311 6 121275432.301 6  94325343.080 5  94325349.121 5        38.800          36.600          33.700          33.700
R14  20550017.297 8  20550017.387 8  20550022.109 7  20550021.957 7      -512.559 8      -511.075 8      -397.503 7      -397.503 7 109543199.202 8 109543202.204 8  85200280.884 7  85200295.880 7        51.500          51.000          47.800          46.700
R15  21856168.195 7  21856168.430 7  21856172.855 7  21856173.219 7      1447.398 7      1449.040 7      1127.030 7      1127.030 7 116792760.676 7 116792785.674 7  90838850.683 7  90838858.689 7        45.700          44.600          42.900          42.400
R17  23056885.313 5  23056883.570 5  23056892.609 6  23056893.016 5      4011.344 5      4011.605 5      3120.121 6      3120.120 5 123382082.384 5 123382125.409 5  95963903.741 6  95963881.735 5        32.600          30.700          36.100          35.600
R23  22155239.961 7  22155239.398 7  22155244.063 6  22155246.430 5      -816.602 7      -804.162 7      -625.459 6      -625.459 5 118515698.015 7 118515688.029 7  92178860.414 6  92178909.404 5        45.800          44.500          36.800          35.000
R24  21451155.922 7  21451155.391 7  21451158.355 5  21451159.055 5      2312.453 7      2321.988 7      1805.989 5      1805.990 5 114709103.154 7 114709113.166 7  89218109.263 5  89218144.250 5        43.500          42.300          32.800          32.000
S22  37576788.531 6  37576228.188 7        64.500 6        47.896 7 197424041.281 6 147425122.349 7        41.700          43.800
S27  39746956.016 5  39746949.914 6        -2.414 5        -1.874 6 208871662.140 5                        31.600          38.200
S29  37669961.766 6                        -6.445 6                 197956993.777 6                        38.900
S30  37505904.016 7                       -39.270 7                 197094831.354 7                        44.000
S32  37212341.047 6                        -1.027 6                 195552206.119 6                        37.200
S37  37669952.609 6                        -6.715 6                 197956913.342 6                        39.400
S40  37027035.125 7                        47.125 7                 194545065.701 7                        45.000
> 2019 02 14 07 12  0.0000000  0 50
C01  37344654.461 6  37344639.625 7  37344645.414 7        37.047 6        30.153 7        28.694 7 194463396.332 6 158017375.041 7 150371386.049 7        40.800          43.400          44.700
C02  37831740.008 6  37831729.305 7  37831733.883 7       -17.582 6       -14.235 7       -13.546 7 196999775.289 6 160078404.271 7 152332686.925 7        37.600          42.100          43.200
C03  36795739.766 7  36795728.613 7  36795734.844 7        25.000 7        20.365 7        19.380 7 191605054.571 7 155694752.961 7 148161152.567 7        42.000          44.100          44.500
C04  38686786.625 6  38686774.844 6  38686780.547 6        21.902 6        17.840 6        16.977 6 201452280.714 6 163696379.070 6 155775606.967 6        36.900          40.700          38.800
C06  36450831.625 7  36450818.508 7  36450826.422 7     -1020.676 7      -827.474 7      -787.435 7 189809040.038 7 154235336.192 7 146772360.985 7        44.900          46.300          45.000
C07  36274666.906 8  36274651.953 8  36274660.195 7      -202.168 8      -164.290 8      -156.341 7 188891729.209 8 153489946.673 8 146063045.178 7        48.300          48.500          47.900
C09  35781334.344 7  35781321.816 7  35781331.184 7      -548.195 7      -443.298 7      -421.848 7 186322790.383 7 151402478.589 7 144076584.091 7        46.000          47.300          47.600
C10  37007941.750 7  37007928.734 7  37007938.586 7       -77.613 7       -62.882 7       -59.839 7 192710094.597 7 156592716.704 7 149015665.338 7        44.900          45.300          45.900
C11  23303653.078 7  23303641.582 7  23303649.840 7       888.148 7       727.938 7       692.715 7 121348276.927 7  98605383.240 7  93834191.065 7        45.800          47.300          46.100
C16  36680003.656 7  36679993.750 7  36680004.297 7     -1116.691 7      -905.559 7      -861.741 7 191002395.693 7 155205106.655 7 147695159.523 7        47.200          44.700          46.000
C18  36922887.484 7  36922879.605 7                       -21.645 7       -17.837 7                 192267174.700 7 156232802.739 7                        46.400          46.200
C23  22665468.063 8  22665451.945 8                       746.266 8       607.487 8                 118025068.868 8  95904986.163 8                        50.000          49.200
C25  23069713.383 8  23069703.012 7                     -1046.543 8      -849.293 7                 120130077.744 8  97615544.936 7                        48.600          47.700
C28  25854046.211 5  25854042.359 6                      3173.188 5      2577.712 6                 134628812.52715 109396916.41216                        33.300          38.700
E02  27240895.219 6  27240902.898 6  27240899.660 6  27240900.379 7      1537.738 6      1149.466 6      1179.452 6      1164.459 7 143151877.212 6 106899165.282 6 109687823.103 6 108293489.795 7        38.100          40.400          40.000          42.900
E03  24807028.633 8  24807034.895 8  24807032.008 8  24807032.871 8       661.656 8       499.123 8       512.143 8       505.633 8 130361828.816 8  97348159.968 8  99887657.767 8  98617903.975 8        48.000          49.000          48.800          51.500
E05  24303546.656 8  24303553.402 8  24303550.070 8  24303551.344 8     -1961.672 8     -1461.033 8     -1499.147 8     -1480.090 8 127716001.399 8  95372339.201 8  97860313.193 8  96616326.302 8        49.300          50.600          50.000          53.100
E09  25629770.344 5  25629785.500 6  25629778.230 5  25629781.746 6     -3045.141 5     -2273.939 6     -2333.262 5     -2303.600 6 134685237.948 5 100576628.096 6 103200352.385 5 101888484.824 6        35.000          36.400          34.700          37.200
E14  17581939.000 8  17581953.590 8  17581949.621 8  17581951.199 8      1223.441 8       929.233 8       953.474 8       941.353 8  92393727.472 8  68995341.749 8  70795219.011 8  69895279.982 8        48.900          51.300          50.000          52.600
E24  22992348.789 8  22992365.371 8  22992362.254 8  22992363.609 8     -1344.871 8     -1004.176 8     -1030.372 8     -1017.274 8 120825646.149 8  90226953.864 8  92580699.485 8  91403827.277 8        48.800          48.800          48.800          51.500
E25  23557130.422 8  23557136.379 8  23557133.586 8  23557134.465 9       224.793 8       169.116 8       173.527 8       171.321 9 123793575.360 8  92443259.372 8  94854823.045 8  93649040.813 9        50.300          50.800          51.700          54.400
G03  23612864.367 6  23612875.004 4  23612874.730 6  23612875.957 7     -1769.125 6     -1374.626 4     -1374.626 6     -1317.350 7 124086361.808 6  96690760.615 4  96690742.626 6  92661960.108 7        41.500          26.700          41.600          44.900
G14  22494063.305 6  22494070.348 4                                     -3061.664 6     -2381.557 4                                 118207071.959 6  92109458.315 4                                        40.400          25.200
G16  20281015.570 8  20281020.992 7                                       342.809 8       272.988 7                                 106577687.580 8  83047417.642 7                                        48.900          42.600
G21  25386292.484 5  25386299.418 2                                       963.395 5       753.539 2                                 133405903.688 5 103952645.169 2                                        33.900          15.600
G22  24218038.570 6  24218044.773 3                                     -2053.746 6     -1598.856 3                                 127266576.533 6  99168817.690 3                                        38.900          22.800
G23  22811807.500 7  22811810.652 5                                      2842.098 7      2218.485 5                                 119876961.191 7  93410568.403 5                                        44.700          30.500
G26  20548273.742 8  20548282.688 7  20548282.063 8  20548281.891 9     -1187.020 8      -921.205 7      -921.204 8      -882.821 9 107982004.538 8  84141820.167 7  84141778.158 8  80635870.991 9        52.400          44.500          50.400          54.500
G27  22260891.117 7  22260899.758 5  22260899.680 7  22260899.711 8      3388.078 7      2643.597 5      2643.596 7      2533.447 8 116981903.205 7  91154812.780 5  91154733.783 7  87356625.255 8        44.000          34.500          45.000          49.300
G31  21877005.102 8  21877010.180 6  21877010.246 7                     -1315.891 8     -1023.181 6     -1023.181 7                 114964478.692 8  89582757.043 6  89582724.047 7                        49.200          36.700          44.900
J01  37058313.141 6  37058321.148 6  37058326.773 7      -505.945 6      -393.831 6      -377.421 7 194742697.465 6 151747548.040 6 145424730.560 7        37.200          39.500          43.700
J02  39496567.828 7  39496573.766 8  39496577.129 8       359.500 7       279.066 8       267.438 8 207555859.780 7 161731834.110 8 154993007.145 8        47.600          48.800          52.100
J03  37565786.547 7  37565792.852 8  37565796.695 8      -330.711 7      -256.819 8      -246.118 8 197409613.991 7 153825649.066 8 147416248.153 8        47.000          49.600          51.600
J07  36817993.578 6  36817999.281 8  36818003.262 8        -2.797 6        -2.090 8        -2.003 8 193479873.423 6 150763512.400 8 144481698.291 8        40.200          49.100          52.300
R03  22595371.805 6  22595371.402 6  22595379.965 6  22595378.777 6     -4258.223 6     -4256.200 6     -3310.367 6     -3310.368 6 120954794.381 6 120954769.387 6  94075922.451 6  94075928.451 6        40.300          39.500          39.200          38.300
R04  20253792.898 8  20253791.426 8  20253795.414 7  20253795.801 7     -1679.082 8     -1667.037 8     -1296.584 7     -1296.583 7 108458160.861 8 108458160.879 8  84356352.556 7  84356351.547 7        51.000          50.000          47.800          46.600
R05  21787377.813 7  21787377.375 7  21787381.418 7  21787381.973 7      1997.965 7      2009.656 7      1563.066 7      1563.066 7 116466211.580 7 116466021.573 7  90584682.583 7  90584703.596 7        47.400          46.600          43.200          43.100
R13  22722480.617 6  22722480.238 6  22722483.969 5  22722484.426 5     -2046.590 6     -2046.634 6     -1591.825 5     -1591.825 5 121336847.321 6 121336831.307 6  94373097.835 5  94373103.865 5        39.800          37.600          34.900          33.800
R14  20552911.383 8  20552910.707 8  20552915.238 7  20552915.406 7      -515.742 8      -514.101 8      -399.856 7      -399.857 7 109558622.248 8 109558625.228 8  85212276.579 7  85212291.581 7        52.000          49.800          47.300          46.600
R15  21848052.742 7  21848052.340 7  21848055.883 7  21848057.293 7      1444.023 7      1445.725 7      1124.452 7      1124.453 7 116749388.911 7 116749413.923 7  90805117.131 7  90805125.113 7        45.700          44.700          43.300          42.700
R17  23034396.016 5  23034394.551 5  23034405.516 5  23034405.422 5      4010.734 5      4011.083 5      3119.716 5      3119.716 5 123261749.861 5 123261792.914 5  95870312.270 5  95870290.261 5        31.000          30.300          35.900          35.000
R23  22159891.914 7  22159890.051 7  22159894.793 6  22159897.809 6      -841.938 7      -829.244 7      -644.967 6      -644.967 6 118540575.336 7 118540565.339 7  92198209.413 6  92198258.424 6        46.000          44.900          37.600          36.200
R24  21438235.914 7  21438235.938 6  21438240.137 5  21438240.090 5      2293.086 7      2302.808 6      1791.073 5      1791.072 5 114640018.910 7 114640028.917 6  89164377.088 5  89164412.097 5        43.100          41.300          33.300          33.000
S22  37576416.000 6  37575854.828 7        64.195 6        47.847 7 197422115.981 6 147423686.941 7        41.800          43.800
S27  39746969.828 5  39746964.566 6        -2.770 5        -1.908 6 208871738.33915                        32.400          38.300
S29  37670000.188 6                        -6.906 6                 197957194.808 6                        39.200
S30  37506124.063 7                       -39.563 7                 197096012.619 7                        43.800
S32  37212346.984 6                        -1.258 6                 195552239.230 6                        37.500
S37  37669992.078 6                        -6.711 6                 197957111.922 6                        38.700
S40  37026881.422 7                        46.422 7                 194543671.239 7                        45.100
> 2019 02 14 07 12 30.0000000  0 51
C01  37344440.625 6  37344425.855 7  37344431.500 7        37.133 6        30.166 7        28.707 7 194462282.604 6 158016470.047 7 150370524.850 7        40.900          42.900          44.300
C02  37831840.195 6  37831829.750 7  37831834.117 7       -17.238 6       -14.161 7       -13.476 7 197000298.090 6 160078829.088 7 152333091.193 7        37.500          42.100          42.200
C03  36795595.594 7  36795584.105 7  36795590.289 7        25.066 7        20.380 7        19.394 7 191604302.146 7 155694141.560 7 148160570.754 7        42.000          44.300          44.300
C04  38686659.609 6  38686648.043 6  38686653.773 6        21.988 6        17.874 6        17.009 6 201451620.803 6 163695842.852 6 155775096.698 6        36.600          40.600          38.800
C05  39561478.477 5  39561468.875 6  39561475.141 6       -13.859 5                                 206007016.04115 167397518.16716 159297661.25716        33.700          37.900          37.000
C06  36456723.438 7  36456710.527 7  36456718.719 7     -1024.895 7      -831.044 7      -790.833 7 189839721.661 7 154260267.516 7 146796085.961 7        45.000          45.500          45.400
C07  36275829.219 7  36275813.938 8  36275822.605 7      -201.473 7      -163.913 8      -155.982 7 188897780.778 7 153494864.067 8 146067724.638 7        47.600          48.100          47.700
C09  35784506.648 7  35784493.762 7  35784503.129 8      -553.059 7      -447.387 7      -425.740 8 186339307.651 7 151415900.209 7 144089356.286 8        46.000          47.300          48.400
C10  37008389.555 7  37008376.082 7  37008386.055 7       -77.785 7       -63.106 7       -60.053 7 192712424.435 7 156594609.891 7 149017466.920 7        45.200          45.400          45.600
C11  23298579.219 7  23298567.398 7  23298576.441 7       873.043 7       715.604 7       680.978 7 121321857.278 7  98583915.124 7  93813761.731 7        45.600          46.900          45.800
C16  36686449.672 7  36686439.945 7  36686450.242 7     -1121.086 7      -909.164 7      -865.173 7 191035961.463 7 155232381.588 7 147721114.703 7        47.000          44.900          45.300
C18  36923008.359 7  36923000.719 7                       -20.559 7       -17.061 7                 192267804.564 7 156233314.561 7                        46.300          46.600
C23  22661175.039 8  22661158.773 8                       743.922 8       605.508 8                 118002713.899 8  95886820.927 8                        49.400          50.100
C25  23075749.719 8  23075739.078 8                     -1048.953 8      -851.341 8                 120161508.724 8  97641085.176 8                        48.500          48.400
C28  25835755.719 5  25835751.609 6                      3176.188 5      2579.750 6                 134533569.400 5 109319523.904 6                        32.800          38.900
E02  27232125.094 6  27232131.773 6  27232128.969 6  27232129.500 7      1535.125 6      1147.270 6      1177.200 6      1162.235 7 143105786.793 6 106864747.171 6 109652507.097 6 108258622.745 7        38.100          39.800          40.100          42.600
E03  24803289.250 7  24803295.516 8  24803292.426 8  24803293.457 8       648.336 7       489.137 8       501.897 8       495.517 8 130342178.281 7  97333485.852 8  99872600.857 8  98603038.454 8        47.700          48.500          48.800          51.300
E05  24314773.406 8  24314779.617 8  24314776.426 8  24314777.922 8     -1971.430 8     -1468.522 8     -1506.831 8     -1487.677 8 127774997.668 8  95416394.860 8  97905518.130 8  96660956.603 8        49.300          50.100          49.700          52.700
E09  25647152.383 5  25647168.871 6  25647160.754 5  25647164.039 6     -3044.551 5     -2273.644 6     -2333.022 5     -2303.302 6 134776579.882 5 100644837.414 6 103270341.16715 101957583.873 6        34.600          36.100          33.800          37.000
E14  17575072.734 8  17575087.086 8  17575083.637 8  17575084.980 8      1181.895 8       898.147 8       921.577 8       909.862 8  92357645.351 8  68968397.326 8  70767571.688 8  69867984.111 8        48.300          50.500          50.000          52.400
E24  23000026.000 8  23000041.867 8  23000039.277 8  23000040.465 8     -1344.668 8     -1004.188 8     -1030.385 8     -1017.287 8 120865988.334 8  90257079.516 8  92611611.031 8  91434345.880 8        48.800          48.200          48.200          51.100
E25  23555854.359 8  23555860.445 8  23555857.098 8  23555858.352 8       222.082 8       166.923 8       171.277 8       169.100 8 123786869.410 8  92438251.690 8  94849684.727 8  93643967.813 8        50.100          50.800          51.100          53.500
G03  23622991.406 7  23623001.574 4  23623001.246 6  23623002.383 7     -1778.727 7     -1382.231 4     -1382.230 6     -1324.637 7 124139577.769 7  96732227.540 4  96732209.532 6  92701699.230 7        42.400          26.200          41.200          44.700
G14  22511570.250 6  22511576.691 4                                     -3071.688 6     -2389.579 4                                 118299070.820 6  92181145.688 4                                        39.400          24.300
G16  20279099.883 8  20279104.813 7                                       328.387 8       261.520 7                                 106567619.061 8  83039572.050 7                                        48.800          42.600
G21  25380812.109 5  25380819.406 2                                       956.523 5       747.993 2                                 133377105.937 5 103930205.390 2                                        33.300          15.600
G22  24229771.094 6  24229777.387 3                                     -2056.910 6     -1601.473 3                                 127328233.417 6  99216861.887 3                                        38.800          21.800
G23  22795609.867 7  22795613.566 5                                      2832.426 7      2210.906 5                                 119791841.291 7  93344241.224 5                                        45.300          31.500
G26  20555075.883 8  20555085.070 7  20555084.805 8  20555084.211 9     -1196.199 8      -928.490 7      -928.490 8      -889.802 9 108017751.388 8  84169674.855 7  84169632.853 8  80662565.066 9        51.400          44.100          49.700          54.500
G27  22241573.664 7  22241582.172 5  22241582.141 7  22241582.488 8      3379.289 7      2636.691 5      2636.690 7      2526.828 8 116880390.491 7  91075712.054 5  91075633.072 7  87280820.416 8        44.000          34.200          45.400          49.300
G31  21884531.344 8  21884536.477 6  21884536.852 7                     -1321.074 8     -1027.323 6     -1027.323 7                 115004030.667 8  89613576.741 6  89613543.749 7                        48.800          36.800          44.400
J01  37061202.609 6  37061210.957 6  37061216.156 7      -506.512 6      -394.398 6      -377.964 7 194757881.886 6 151759379.967 6 145436069.470 7        36.400          39.500          43.700
J02  39494505.891 7  39494511.531 8  39494515.551 8       362.711 7       281.408 8       269.683 8 207545025.583 7 161723391.875 8 154984916.668 8        47.500          48.800          52.300
J03  37567680.031 7  37567685.895 8  37567689.875 8      -332.559 7      -258.421 8      -247.653 8 197419563.169 7 153833401.699 8 147423677.752 8        46.700          48.800          51.400
J07  36818008.875 6  36818014.414 8  36818018.512 8        -2.668 6        -2.070 8        -1.983 8 193479953.088 6 150763574.494 8 144481757.786 8        40.400          48.600          52.100
R03  22619245.570 6  22619244.820 6  22619252.270 6  22619252.898 6     -4261.543 6     -4259.859 6     -3313.212 6     -3313.212 6 121082590.133 6 121082565.160 6  94175318.821 6  94175324.808 6        40.400          39.800          39.200          38.500
R04  20263265.563 8  20263264.547 8  20263268.621 8  20263268.898 7     -1702.871 8     -1690.916 8     -1315.157 8     -1315.157 7 108508888.358 8 108508888.370 8  84395807.256 8  84395806.255 7        51.100          49.800          48.000          46.500
R05  21776228.836 7  21776228.477 7  21776233.656 7  21776233.484 7      1974.883 7      1986.517 7      1545.068 7      1545.068 7 116406616.041 7 116406426.048 7  90538330.542 7  90538351.547 7        47.700          46.200          43.300          42.400
R13  22733974.367 6  22733973.730 6  22733979.285 5  22733980.039 5     -2045.715 6     -2046.036 6     -1591.361 5     -1591.359 5 121398228.350 6 121398212.372 6  94420838.652 5  94420844.638 5        37.900          36.800          35.600          34.900
R14  20555821.250 8  20555820.813 8  20555825.461 7  20555825.422 7      -518.547 8      -517.070 8      -402.166 7      -402.165 7 109574134.334 8 109574137.328 8  85224341.547 7  85224356.542 7        52.000          50.100          47.800          46.600
R15  21839954.070 7  21839953.902 7  21839958.164 7  21839958.969 7      1440.875 7      1442.471 7      1121.921 7      1121.921 7 116706114.782 7 116706139.788 7  90771459.489 7  90771467.481 7        45.800          44.300          43.200          42.400
R17  23011910.352 5  23011909.523 5  23011922.969 5  23011921.008 5      4010.285 5      4010.561 5      3119.219 5      3119.219 5 123141436.494 5 123141479.55315  95776735.701 5  95776713.702 5        30.100          30.100          34.800          33.400
R23  22164681.539 7  22164679.977 7  22164686.164 6  22164687.852 5      -866.707 7      -854.284 7      -664.444 6      -664.443 5 118566203.848 7 118566193.864 7  92218142.728 6  92218191.704 5        45.600          43.900          36.900          35.500
R24  21425426.336 7  21425425.629 6  21425428.855 5  21425429.086 5      2273.941 7      2283.527 6      1776.075 5      1776.076 5 114571513.071 7 114571523.096 6  89111094.839 5  89111129.812 5        43.900          41.900          33.400          32.600
S22  37576043.031 6  37575481.273 7        63.754 6        47.923 7 197420189.937 6 147422249.241 7        41.900          44.100
S27  39746984.563 5  39746978.980 6        -2.496 5        -1.905 6 208871814.535 5                        31.200          38.200
S29  37670041.297 6                        -6.637 6                 197957393.063 6                        39.000
S30  37506351.219 7                       -39.441 7                 197097196.486 7                        43.700
S32  37212350.125 6                        -1.133 6                 195552273.673 6                        37.300
S37  37670031.906 6                        -6.418 6                 197957310.336 6                        39.400
S40  37026727.344 7                        46.258 7                 194542271.154 7                        45.200
